City_ID,City,Country,Date,Lat,Lng,Max Temp,Humidity,Cloudiness,Wind Speed,Current Description,Rain inches(last 3hrs),Snow inches(last 3hrs)
0,Tuktoyaktuk,CA,2020-01-04 19:47:41,69.44,-133.03,-23.8,74,40,11.41,scattered clouds,0.0,0.0
1,Cockburn Town,TC,2020-01-04 19:47:41,21.46,-71.14,80.6,69,40,11.41,scattered clouds,0.0,0.0
2,Salinas,US,2020-01-04 19:47:41,36.67,-121.66,62.01,82,75,5.82,broken clouds,0.0,0.0
3,Longyearbyen,NO,2020-01-04 19:47:42,78.22,15.63,3.2,71,40,10.29,scattered clouds,0.0,0.0
4,Puerto Ayora,EC,2020-01-04 19:47:42,-0.74,-90.35,86.0,58,20,13.87,few clouds,0.0,0.0
5,Atuona,PF,2020-01-04 19:47:42,-9.8,-139.03,81.55,68,5,9.24,clear sky,0.0,0.0
6,Kahului,US,2020-01-04 19:47:42,20.89,-156.47,77.0,78,20,18.34,few clouds,0.0,0.0
7,Zhezkazgan,KZ,2020-01-04 19:46:36,47.8,67.71,22.35,96,94,8.63,light snow,0.0,0.0
8,Kapaa,US,2020-01-04 19:47:43,22.08,-159.32,75.2,88,90,19.46,light rain,0.0,0.0
9,Pont-Rouge,CA,2020-01-04 19:47:05,46.76,-71.7,33.8,92,90,1.32,overcast clouds,0.0,0.0
10,Jamestown,AU,2020-01-04 19:47:43,-33.21,138.6,55.47,52,99,15.46,overcast clouds,0.0,0.0
11,Busselton,AU,2020-01-04 19:43:56,-33.64,115.35,57.99,40,0,10.63,clear sky,0.0,0.0
12,Kamiiso,JP,2020-01-04 19:46:31,41.82,140.65,14.79,93,24,2.59,few clouds,0.0,0.0
13,Rikitea,PF,2020-01-04 19:47:44,-23.12,-134.97,77.2,77,67,16.6,broken clouds,0.0,0.0
14,Fremont,US,2020-01-04 19:45:02,37.55,-121.99,61.0,71,40,4.7,scattered clouds,0.0,0.0
15,Mataura,NZ,2020-01-04 19:44:01,-46.19,168.86,51.01,89,98,7.0,overcast clouds,0.0,0.0
16,Port Alfred,ZA,2020-01-04 19:46:12,-33.59,26.89,71.01,98,100,4.41,overcast clouds,0.0,0.0
17,Hobart,AU,2020-01-04 19:47:32,-42.88,147.33,54.0,50,75,4.7,broken clouds,0.0,0.0
18,Naryan-Mar,RU,2020-01-04 19:47:45,67.67,53.09,27.75,85,100,34.49,light snow,0.0,0.0
19,Tasiilaq,GL,2020-01-04 19:44:03,65.61,-37.64,26.6,86,100,11.41,light snow,0.0,0.0
20,Carnarvon,ZA,2020-01-04 19:43:14,-30.97,22.13,72.52,24,0,14.58,clear sky,0.0,0.0
21,Bonavista,CA,2020-01-04 19:47:45,48.65,-53.11,29.03,85,68,9.4,broken clouds,0.0,0.0
22,Bredasdorp,ZA,2020-01-04 19:44:00,-34.53,20.04,68.0,64,25,8.05,scattered clouds,0.0,0.0
23,Anito,PH,2020-01-04 19:47:45,12.45,125.29,80.8,79,63,23.78,moderate rain,0.0,0.0
24,Barra Do Corda,BR,2020-01-04 19:47:46,-5.5,-45.25,72.97,97,100,1.43,light rain,0.0,0.0
25,Lagoa,PT,2020-01-04 19:44:45,37.14,-8.45,55.0,87,0,3.36,clear sky,0.0,0.0
26,Padang,ID,2020-01-04 19:47:46,-0.92,100.36,68.68,92,100,5.53,overcast clouds,0.0,0.0
27,Albany,US,2020-01-04 19:47:46,42.65,-73.75,43.0,86,90,5.82,light intensity drizzle,0.0,0.0
28,Tura,RU,2020-01-04 19:47:46,64.27,100.22,1.31,94,100,6.6,light snow,0.0,0.0
29,Codrington,AU,2020-01-04 19:42:49,-28.95,153.24,71.6,93,0,5.46,clear sky,0.0,0.0
30,Vaini,IN,2020-01-04 19:47:47,15.34,74.49,59.25,75,0,1.34,clear sky,0.0,0.0
31,Ushuaia,AR,2020-01-04 19:43:56,-54.81,-68.31,57.2,41,40,5.82,scattered clouds,0.0,0.0
32,New Norfolk,AU,2020-01-04 19:47:47,-42.78,147.06,54.0,50,75,4.7,broken clouds,0.0,0.0
33,Barrow,AR,2020-01-04 19:47:47,-38.31,-60.23,77.27,55,75,18.05,broken clouds,0.0,0.0
34,Butaritari,KI,2020-01-04 19:47:47,3.07,172.79,84.61,78,38,15.12,scattered clouds,0.0,0.0
35,Husavik,CA,2020-01-04 19:47:47,50.56,-96.99,27.0,93,100,5.99,overcast clouds,0.0,0.0
36,Necochea,AR,2020-01-04 19:43:18,-38.55,-58.74,75.83,56,3,13.33,clear sky,0.0,0.0
37,Saint-Philippe,CA,2020-01-04 19:42:53,45.36,-73.48,34.0,92,90,11.41,light snow,0.0,0.0
38,Vestmanna,FO,2020-01-04 19:47:48,62.16,-7.17,44.6,100,100,19.46,light rain,0.0,0.0
39,Ribeira Grande,PT,2020-01-04 19:47:48,38.52,-28.7,64.4,88,20,11.41,few clouds,0.0,0.0
40,Punta Arenas,CL,2020-01-04 19:47:48,-53.16,-70.91,59.0,44,40,14.99,scattered clouds,0.0,0.0
41,Cherskiy,RU,2020-01-04 19:47:48,68.75,161.3,-2.87,58,31,6.64,scattered clouds,0.0,0.0
42,Yeppoon,AU,2020-01-04 19:47:49,-23.13,150.74,71.6,73,100,4.7,overcast clouds,0.0,0.0
43,Kavieng,PG,2020-01-04 19:47:49,-2.57,150.8,83.77,77,100,12.12,moderate rain,0.0,0.0
44,San Jose De Sisa,PE,2020-01-04 19:47:49,-6.62,-76.69,89.6,100,40,11.41,scattered clouds,0.0,0.0
45,Qaanaaq,GL,2020-01-04 19:47:49,77.48,-69.36,-40.9,61,0,5.1,clear sky,0.0,0.0
46,Cape Town,ZA,2020-01-04 19:44:50,-33.93,18.42,70.0,72,2,8.05,clear sky,0.0,0.0
47,Mar Del Plata,AR,2020-01-04 19:47:49,-46.43,-67.52,64.15,42,17,13.82,few clouds,0.0,0.0
48,Gaya,IN,2020-01-04 19:47:49,24.8,85.01,57.2,93,20,4.68,mist,0.0,0.0
49,Hithadhoo,MV,2020-01-04 19:47:50,-0.6,73.08,83.03,68,99,4.38,overcast clouds,0.0,0.0
50,Cidreira,BR,2020-01-04 19:47:50,-30.17,-50.22,73.17,80,23,17.76,light rain,0.0,0.0
51,Bluff,AU,2020-01-04 19:47:50,-23.58,149.07,72.23,72,59,8.48,broken clouds,0.0,0.0
52,Jaciara,BR,2020-01-04 19:47:50,-15.95,-54.98,85.66,64,23,4.16,few clouds,0.0,0.0
53,Hovd,NO,2020-01-04 19:47:50,63.83,10.7,37.0,82,90,25.28,shower snow,0.0,0.0
54,Dikson,RU,2020-01-04 19:44:23,73.51,80.55,0.25,82,100,22.15,overcast clouds,0.0,0.0
55,Coquimbo,CL,2020-01-04 19:45:42,-29.95,-71.34,66.2,72,40,13.87,scattered clouds,0.0,0.0
56,Belem De Sao Francisco,BR,2020-01-04 19:47:51,-8.75,-38.97,77.13,77,100,5.93,moderate rain,0.0,0.0
57,Bethel,US,2020-01-04 19:47:51,60.79,-161.76,-9.4,75,1,5.82,clear sky,0.0,0.0
58,Tarata,PE,2020-01-04 19:47:51,-17.47,-70.03,78.8,50,40,13.87,scattered clouds,0.0,0.0
59,Nanortalik,GL,2020-01-04 19:47:51,60.14,-45.24,30.34,89,100,15.46,light snow,0.0,0.0
60,Chuy,UY,2020-01-04 19:47:52,-33.69,-53.46,74.25,64,13,12.35,few clouds,0.0,0.0
61,Mount Gambier,AU,2020-01-04 19:47:52,-37.83,140.78,53.6,71,90,8.05,overcast clouds,0.0,0.0
62,Avarua,CK,2020-01-04 19:47:52,-21.21,-159.78,78.8,88,1,5.82,light rain,0.0,0.0
63,Severo-Kurilsk,RU,2020-01-04 19:47:52,50.68,156.12,14.34,73,100,3.11,overcast clouds,0.0,0.0
64,Klaksvik,FO,2020-01-04 19:47:52,62.23,-6.59,44.6,100,100,19.46,light rain,0.0,0.0
65,Geraldton,CA,2020-01-04 19:47:52,49.72,-86.95,15.8,85,90,9.17,light snow,0.0,0.0
66,Prince Rupert,CA,2020-01-04 19:47:53,54.32,-130.32,37.4,93,90,12.75,overcast clouds,0.0,0.0
67,Mwinilunga,ZM,2020-01-04 19:47:53,-11.73,24.43,61.36,98,100,2.75,overcast clouds,0.0,0.0
68,Road Town,VG,2020-01-04 19:44:47,18.42,-64.62,82.4,61,20,8.05,few clouds,0.0,0.0
69,Salalah,OM,2020-01-04 19:46:12,17.01,54.1,77.0,73,20,10.29,few clouds,0.0,0.0
70,Bend,US,2020-01-04 19:47:53,44.06,-121.32,42.8,44,1,10.29,clear sky,0.0,0.0
71,Dagatan,PH,2020-01-04 19:47:53,13.74,121.2,79.0,83,86,5.99,light rain,0.0,0.0
72,Yellowknife,CA,2020-01-04 19:47:54,62.45,-114.38,3.2,91,90,16.11,light snow,0.0,0.0
73,Caravelas,BR,2020-01-04 19:45:34,-17.73,-39.27,78.39,84,100,8.88,overcast clouds,0.0,0.0
74,Cap Malheureux,MU,2020-01-04 19:47:54,-19.98,57.61,79.0,94,40,12.03,scattered clouds,0.0,0.0
75,Fortuna,US,2020-01-04 19:47:34,40.6,-124.16,53.01,87,1,4.7,clear sky,0.0,0.0
76,La Peca,PE,2020-01-04 19:47:54,-5.61,-78.44,87.78,40,47,2.26,scattered clouds,0.0,0.0
77,Moth,IN,2020-01-04 19:47:55,25.73,78.95,54.39,79,0,3.42,clear sky,0.0,0.0
78,Fallon,US,2020-01-04 19:47:55,46.84,-105.12,41.0,60,1,11.41,clear sky,0.0,0.0
79,Georgetown,GY,2020-01-04 19:47:55,6.8,-58.16,86.0,66,20,9.17,few clouds,0.0,0.0
80,Bilibino,RU,2020-01-04 19:46:24,68.06,166.44,-4.83,48,0,1.52,clear sky,0.0,0.0
81,Yumen,CN,2020-01-04 19:44:25,40.29,97.04,17.22,63,100,4.25,overcast clouds,0.0,0.0
82,Gizo,IL,2020-01-04 19:47:55,31.8,34.94,52.0,93,40,11.41,scattered clouds,0.0,0.0
83,Sorland,NO,2020-01-04 19:46:33,67.67,12.69,33.22,60,95,19.6,light snow,0.0,0.0
84,Upernavik,GL,2020-01-04 19:47:56,72.79,-56.15,-35.36,97,64,12.21,broken clouds,0.0,0.0
85,Zeya,RU,2020-01-04 19:47:56,53.74,127.27,-20.92,98,0,2.84,clear sky,0.0,0.0
86,Vanavara,RU,2020-01-04 19:47:56,60.35,102.28,3.81,94,100,5.5,overcast clouds,0.0,0.0
87,Shaki,AM,2020-01-04 19:47:56,39.56,46.0,33.8,86,75,6.93,broken clouds,0.0,0.0
88,Sompeta,IN,2020-01-04 19:47:56,18.93,84.6,63.32,94,3,2.64,clear sky,0.0,0.0
89,Souillac,FR,2020-01-04 19:47:57,45.6,-0.6,42.8,81,0,6.93,clear sky,0.0,0.0
90,Adrar,DZ,2020-01-04 19:46:13,27.87,-0.29,51.8,27,85,9.17,overcast clouds,0.0,0.0
91,Russell,US,2020-01-04 19:45:21,38.9,-98.86,48.99,52,1,20.8,clear sky,0.0,0.0
92,Faanui,PF,2020-01-04 19:47:57,-16.48,-151.75,81.45,77,100,12.1,overcast clouds,0.0,0.0
93,Victoria,BN,2020-01-04 19:46:09,5.28,115.24,82.4,78,75,8.05,broken clouds,0.0,0.0
94,Sanmenxia,CN,2020-01-04 19:47:57,34.77,111.19,33.85,97,100,3.4,snow,0.0,0.0
95,Ponta Do Sol,BR,2020-01-04 19:47:58,-20.63,-46.0,72.32,89,100,2.01,moderate rain,0.0,0.0
96,Cayenne,GF,2020-01-04 19:47:58,4.94,-52.33,84.2,70,75,9.17,broken clouds,0.0,0.0
97,Isangel,VU,2020-01-04 19:47:58,-19.55,169.27,76.89,78,5,14.47,light rain,0.0,0.0
98,Naron,ES,2020-01-04 19:47:58,43.52,-8.15,50.0,93,0,3.62,clear sky,0.0,0.0
99,Kaitangata,NZ,2020-01-04 19:47:58,-46.28,169.85,49.23,86,100,7.96,light rain,0.0,0.0
100,Khasan,RU,2020-01-04 19:47:59,42.43,130.64,18.45,64,0,11.34,clear sky,0.0,0.0
101,Kawalu,ID,2020-01-04 19:47:59,-7.38,108.21,70.34,88,45,2.75,scattered clouds,0.0,0.0
102,Ilulissat,GL,2020-01-04 19:44:05,69.22,-51.1,12.2,66,40,11.41,shower rain,0.0,0.0
103,Vohma,EE,2020-01-04 19:47:59,58.63,25.55,35.01,87,30,7.0,scattered clouds,0.0,0.0
104,Hilo,US,2020-01-04 19:47:59,19.71,-155.08,75.2,73,40,3.36,scattered clouds,0.0,0.0
105,Clyde River,CA,2020-01-04 19:44:32,70.47,-68.59,-23.8,67,75,9.17,mist,0.0,0.0
106,Haines Junction,CA,2020-01-04 19:45:02,60.75,-137.51,-8.25,97,100,3.31,overcast clouds,0.0,0.0
107,Gorodishche,RU,2020-01-04 19:48:00,53.27,45.7,33.01,72,100,13.47,overcast clouds,0.0,0.0
108,Jaru,BR,2020-01-04 19:48:00,-10.43,-62.48,78.28,94,100,4.05,moderate rain,0.0,0.0
109,Quatre Cocos,MU,2020-01-04 19:48:00,-20.21,57.76,79.0,94,40,15.75,scattered clouds,0.0,0.0
110,Touros,BR,2020-01-04 19:48:01,-5.2,-35.46,84.2,62,40,17.22,scattered clouds,0.0,0.0
111,Khandyga,RU,2020-01-04 19:48:01,62.65,135.58,-29.36,96,2,1.81,clear sky,0.0,0.0
112,Obo,CF,2020-01-04 19:48:01,5.39,26.49,72.91,29,0,5.17,clear sky,0.0,0.0
113,Luderitz,NA,2020-01-04 19:46:07,-26.65,15.16,62.53,87,0,25.5,clear sky,0.0,0.0
114,Santa Luzia,BR,2020-01-04 19:48:01,-19.77,-43.85,77.0,78,40,6.93,scattered clouds,0.0,0.0
115,Thompson,CA,2020-01-04 19:46:15,55.74,-97.86,1.4,77,90,5.82,light snow,0.0,0.0
116,Arlit,NE,2020-01-04 19:44:30,18.74,7.39,59.49,24,0,18.97,clear sky,0.0,0.0
117,Cavnic,RO,2020-01-04 19:48:02,47.65,23.83,26.56,96,100,1.81,light snow,0.0,0.0
118,Lisakovsk,KZ,2020-01-04 19:48:02,52.55,62.49,14.72,91,50,14.23,scattered clouds,0.0,0.0
119,Tramore,IE,2020-01-04 19:48:02,52.16,-7.15,46.99,93,100,5.82,overcast clouds,0.0,0.0
120,Eyl,SO,2020-01-04 19:46:33,7.98,49.82,78.22,81,0,17.49,clear sky,0.0,0.0
121,Iqaluit,CA,2020-01-04 19:44:35,63.75,-68.52,-11.2,76,90,34.45,overcast clouds,0.0,0.0
122,Saint Anthony,US,2020-01-04 19:48:03,43.97,-111.68,35.6,85,90,3.36,overcast clouds,0.0,0.0
123,Hermanus,ZA,2020-01-04 19:48:03,-34.42,19.24,64.99,87,5,3.0,clear sky,0.0,0.0
124,Tuatapere,NZ,2020-01-04 19:48:03,-46.13,167.69,51.01,89,100,7.0,light rain,0.0,0.0
125,Karasjok,NO,2020-01-04 19:48:03,69.47,25.52,23.0,73,0,38.03,clear sky,0.0,0.0
126,Flin Flon,CA,2020-01-04 19:48:03,54.77,-101.88,12.2,85,90,10.29,light snow,0.0,0.0
127,Ahipara,NZ,2020-01-04 19:46:21,-35.17,173.16,63.0,97,100,13.89,overcast clouds,0.0,0.0
128,Karpogory,RU,2020-01-04 19:48:04,64.0,44.44,27.75,93,100,7.85,light snow,0.0,0.0
129,Aguimes,ES,2020-01-04 19:48:04,27.91,-15.45,64.4,68,20,9.17,few clouds,0.0,0.0
130,Buala,SB,2020-01-04 19:48:04,-8.15,159.59,82.56,79,87,7.29,overcast clouds,0.0,0.0
131,Vyazma,RU,2020-01-04 19:48:04,55.21,34.3,31.21,83,78,10.27,light snow,0.0,0.0
132,Neryungri,RU,2020-01-04 19:48:04,56.66,124.71,4.55,90,82,5.32,broken clouds,0.0,0.0
133,Lompoc,US,2020-01-04 19:48:05,34.64,-120.46,63.0,76,1,3.36,clear sky,0.0,0.0
134,Cotonou,BJ,2020-01-04 19:48:05,6.37,2.43,77.0,53,14,2.24,dust,0.0,0.0
135,Ancud,CL,2020-01-04 19:48:05,-41.87,-73.83,64.4,55,0,10.29,clear sky,0.0,0.0
136,Forio,IT,2020-01-04 19:48:05,40.73,13.86,52.0,81,75,3.36,mist,0.0,0.0
137,Mehamn,NO,2020-01-04 19:46:24,71.03,27.85,21.83,74,100,24.47,light snow,0.0,0.0
138,Poum,MK,2020-01-04 19:48:06,41.28,20.71,33.8,74,100,4.7,overcast clouds,0.0,0.0
139,Okhotsk,RU,2020-01-04 19:44:56,59.36,143.24,16.5,90,100,7.09,light snow,0.0,0.0
140,Pacific Grove,US,2020-01-04 19:46:30,36.62,-121.92,62.01,82,75,5.82,broken clouds,0.0,0.0
141,Kruisfontein,ZA,2020-01-04 19:44:05,-34.0,24.73,68.18,96,49,3.51,scattered clouds,0.0,0.0
142,Calvinia,ZA,2020-01-04 19:48:06,-31.47,19.78,64.94,44,56,9.24,broken clouds,0.0,0.0
143,Karratha,AU,2020-01-04 19:45:47,-20.74,116.85,83.57,73,100,17.98,light rain,0.0,0.0
144,Saskylakh,RU,2020-01-04 19:48:07,71.97,114.09,-21.41,95,62,6.04,broken clouds,0.0,0.0
145,Torbay,CA,2020-01-04 19:48:07,47.66,-52.73,35.01,98,90,11.41,light rain,0.0,0.0
146,Tirana,AL,2020-01-04 19:48:07,41.33,19.82,42.8,87,75,4.7,broken clouds,0.0,0.0
147,Kozhva,RU,2020-01-04 19:48:07,65.11,57.05,24.93,80,15,13.91,few clouds,0.0,0.0
148,Sydney,AU,2020-01-04 19:46:07,-33.85,151.22,72.0,64,0,18.34,clear sky,0.0,0.0
149,Beringovskiy,RU,2020-01-04 19:48:08,63.05,179.32,-8.45,75,0,17.96,clear sky,0.0,0.0
150,Ucluelet,CA,2020-01-04 19:46:34,48.94,-125.55,42.01,93,90,2.24,shower rain,0.0,0.0
151,Meulaboh,ID,2020-01-04 19:48:08,4.14,96.13,81.25,78,19,7.4,light rain,0.0,0.0
152,Palaikastron,GR,2020-01-04 19:48:08,35.2,26.25,53.01,57,0,5.99,clear sky,0.0,0.0
153,Carutapera,BR,2020-01-04 19:48:08,-1.2,-46.02,82.63,74,100,9.64,overcast clouds,0.0,0.0
154,Gat,SN,2020-01-04 19:44:36,14.69,-16.54,82.4,24,30,2.24,dust,0.0,0.0
155,Vila Do Maio,CV,2020-01-04 19:48:09,15.13,-23.22,75.2,60,37,16.11,dust,0.0,0.0
156,Bambous Virieux,MU,2020-01-04 19:48:09,-20.34,57.76,79.0,94,40,13.6,scattered clouds,0.0,0.0
157,Redlands,US,2020-01-04 19:48:09,34.06,-117.19,71.01,33,1,9.17,clear sky,0.0,0.0
158,Alice Springs,AU,2020-01-04 19:48:09,-23.7,133.88,68.0,77,90,10.29,overcast clouds,0.0,0.0
159,Nikolskoye,RU,2020-01-04 19:48:09,59.7,30.79,34.0,86,90,15.66,overcast clouds,0.0,0.0
160,Pisco,PE,2020-01-04 19:48:10,-13.71,-76.2,75.0,30,89,14.99,overcast clouds,0.0,0.0
161,Attleboro,US,2020-01-04 19:47:46,41.94,-71.29,46.4,100,90,4.7,light rain,0.0,0.0
162,Agadez,NE,2020-01-04 19:48:10,16.97,7.99,56.75,26,0,15.19,clear sky,0.0,0.0
163,Saldanha,PT,2020-01-04 19:48:10,41.42,-6.55,38.01,86,0,4.61,clear sky,0.0,0.0
164,Slave Lake,CA,2020-01-04 19:48:10,55.28,-114.77,17.6,85,90,3.36,overcast clouds,0.0,0.0
165,Rio Grande,BR,2020-01-04 19:45:46,-32.03,-52.1,82.4,51,20,16.11,few clouds,0.0,0.0
166,Saint-Pierre,FR,2020-01-04 19:48:10,48.95,4.24,44.6,87,90,9.17,overcast clouds,0.0,0.0
167,Amapa,HN,2020-01-04 19:48:11,15.09,-87.97,91.4,49,40,12.75,scattered clouds,0.0,0.0
168,Sfantu Gheorghe,RO,2020-01-04 19:48:11,44.65,26.83,37.99,86,62,3.36,mist,0.0,0.0
169,Mampong,GH,2020-01-04 19:48:11,7.06,-1.4,74.97,25,0,2.13,clear sky,0.0,0.0
170,Coihaique,CL,2020-01-04 19:48:11,-45.58,-72.07,60.8,41,40,10.29,scattered clouds,0.0,0.0
171,Kieta,PG,2020-01-04 19:48:11,-6.22,155.63,82.63,72,7,3.83,clear sky,0.0,0.0
172,Wewak,PG,2020-01-04 19:48:11,-3.55,143.63,75.49,94,100,7.74,moderate rain,0.0,0.0
173,Myanaung,MM,2020-01-04 19:48:12,18.28,95.32,68.13,76,0,4.32,clear sky,0.0,0.0
174,Port Elizabeth,US,2020-01-04 19:48:12,39.31,-74.98,57.99,93,90,5.82,overcast clouds,0.0,0.0
175,Kupang,ID,2020-01-04 19:48:12,-10.16,123.6,83.79,79,98,27.09,light rain,0.0,0.0
176,Tutoia,BR,2020-01-04 19:48:12,-2.76,-42.27,82.4,88,40,6.93,scattered clouds,0.0,0.0
177,Namatanai,PG,2020-01-04 19:48:12,-3.66,152.44,77.4,90,100,3.02,heavy intensity rain,0.0,0.0
178,Stonewall,CA,2020-01-04 19:45:05,50.13,-97.33,27.0,85,90,17.22,light snow,0.0,0.0
179,Penapolis,BR,2020-01-04 19:48:12,-21.42,-50.08,81.59,73,19,5.99,light rain,0.0,0.0
180,Castro,CL,2020-01-04 19:46:08,-42.48,-73.76,64.4,55,0,10.29,clear sky,0.0,0.0
181,Lebu,ET,2020-01-04 19:48:13,8.96,38.73,60.8,55,20,6.93,few clouds,0.0,0.0
182,Ha Tinh,VN,2020-01-04 19:48:13,18.33,105.9,70.41,83,73,2.91,light rain,0.0,0.0
183,Itarema,BR,2020-01-04 19:48:13,-2.92,-39.92,80.62,74,62,7.2,broken clouds,0.0,0.0
184,Constitucion,MX,2020-01-04 19:46:16,23.99,-104.67,54.0,29,5,8.05,clear sky,0.0,0.0
185,Roald,NO,2020-01-04 19:48:14,62.58,6.12,37.4,69,75,6.93,broken clouds,0.0,0.0
186,Mitsamiouli,KM,2020-01-04 19:48:14,-11.38,43.28,81.81,79,100,5.91,overcast clouds,0.0,0.0
187,Sisimiut,GL,2020-01-04 19:48:14,66.94,-53.67,7.54,88,100,4.9,overcast clouds,0.0,0.0
188,Awbari,LY,2020-01-04 19:48:14,26.59,12.77,45.14,60,0,2.86,clear sky,0.0,0.0
189,Sioux Lookout,CA,2020-01-04 19:48:14,50.1,-91.92,23.0,67,75,2.24,light snow,0.0,0.0
190,Yulara,AU,2020-01-04 19:48:14,-25.24,130.99,62.6,100,90,6.93,overcast clouds,0.0,0.0
191,Cabo San Lucas,MX,2020-01-04 19:45:07,22.89,-109.91,79.0,36,5,5.82,clear sky,0.0,0.0
192,Telimele,GN,2020-01-04 19:48:15,10.9,-13.03,70.45,23,0,2.59,clear sky,0.0,0.0
193,Grand Gaube,MU,2020-01-04 19:48:15,-20.01,57.66,79.0,94,40,12.03,scattered clouds,0.0,0.0
194,Wanning,AT,2020-01-04 19:48:15,48.64,13.53,39.0,93,75,20.8,light intensity shower rain,0.0,0.0
195,Anshun,CN,2020-01-04 19:48:15,26.25,105.93,55.0,95,94,14.97,overcast clouds,0.0,0.0
196,Nassau,AT,2020-01-04 19:48:16,46.81,15.34,39.99,80,20,5.82,few clouds,0.0,0.0
197,Biloela,AU,2020-01-04 19:48:16,-24.4,150.51,69.39,72,0,5.23,clear sky,0.0,0.0
198,Berezovka,RU,2020-01-04 19:48:16,55.71,42.61,29.43,93,100,10.87,light snow,0.0,0.0
199,Walvis Bay,NA,2020-01-04 19:48:16,-22.95,14.51,62.01,87,20,10.29,few clouds,0.0,0.0
200,Fairbanks,US,2020-01-04 19:48:17,64.84,-147.72,-29.2,60,75,3.29,mist,0.0,0.0
201,San Cristobal,HN,2020-01-04 19:48:17,14.68,-86.92,80.58,50,67,9.37,light rain,0.0,0.0
202,Guerrero Negro,MX,2020-01-04 19:48:17,27.97,-114.04,71.6,23,0,3.0,clear sky,0.0,0.0
203,Ulaangom,MN,2020-01-04 19:48:17,49.98,92.07,-10.5,90,99,2.1,overcast clouds,0.0,0.0
204,Hobyo,SO,2020-01-04 19:48:17,5.35,48.53,77.72,81,0,14.45,clear sky,0.0,0.0
205,Puerto Escondido,MX,2020-01-04 19:48:17,15.86,-97.07,83.86,53,88,4.7,overcast clouds,0.0,0.0
206,Nishihara,JP,2020-01-04 19:48:18,35.74,139.53,41.0,65,20,17.22,few clouds,0.0,0.0
207,Requena,ES,2020-01-04 19:48:18,39.49,-1.1,51.01,81,14,4.7,few clouds,0.0,0.0
208,Beira,ES,2020-01-04 19:48:18,43.2,-8.36,50.0,93,0,1.83,clear sky,0.0,0.0
209,Leningradskiy,RU,2020-01-04 19:45:31,69.38,178.42,-9.0,62,34,1.07,scattered clouds,0.0,0.0
210,Sulangan,PH,2020-01-04 19:48:18,11.14,123.72,80.06,77,21,13.53,few clouds,0.0,0.0
211,Paamiut,GL,2020-01-04 19:48:18,61.99,-49.67,26.4,72,100,12.12,overcast clouds,0.0,0.0
212,Lieksa,FI,2020-01-04 19:48:18,63.32,30.02,26.24,85,100,11.16,light snow,0.0,0.0
213,Zhangjiakou,CN,2020-01-04 19:48:19,40.77,114.88,16.93,55,39,1.97,scattered clouds,0.0,0.0
214,Komsomolskiy,RU,2020-01-04 19:48:19,67.55,63.78,25.43,90,78,17.94,broken clouds,0.0,0.0
215,Hasaki,JP,2020-01-04 19:48:19,35.73,140.83,32.0,58,20,4.7,fog,0.0,0.0
216,Aripuana,BR,2020-01-04 19:48:19,-9.17,-60.63,82.06,82,100,2.15,moderate rain,0.0,0.0
217,San Vicente,EC,2020-01-04 19:48:19,-0.59,-80.41,84.2,66,20,10.29,few clouds,0.0,0.0
218,Huarmey,PE,2020-01-04 19:48:19,-10.07,-78.15,78.62,55,92,7.85,overcast clouds,0.0,0.0
219,Bubaque,GW,2020-01-04 19:46:14,11.28,-15.83,78.42,62,0,9.93,clear sky,0.0,0.0
220,Kungurtug,RU,2020-01-04 19:48:20,50.6,97.53,-5.48,89,20,2.51,few clouds,0.0,0.0
221,Portland,US,2020-01-04 19:45:15,43.66,-70.25,41.0,80,90,6.93,light rain,0.0,0.0
222,Dakar,SN,2020-01-04 19:47:06,14.69,-17.45,77.0,64,5,11.41,dust,0.0,0.0
223,Srednekolymsk,RU,2020-01-04 19:44:00,67.46,153.71,-0.27,55,88,2.26,overcast clouds,0.0,0.0
224,Nemuro,JP,2020-01-04 19:48:20,43.32,145.57,23.68,62,21,14.83,few clouds,0.0,0.0
225,San Patricio,PY,2020-01-04 19:48:20,-26.98,-56.83,90.84,31,0,3.33,clear sky,0.0,0.0
226,East London,ZA,2020-01-04 19:48:21,-33.02,27.91,76.12,93,48,11.74,scattered clouds,0.0,0.0
227,Collie,AU,2020-01-04 19:48:21,-33.36,116.15,59.0,40,0,8.32,clear sky,0.0,0.0
228,Srivardhan,IN,2020-01-04 19:48:21,18.03,73.02,67.35,80,0,6.49,clear sky,0.0,0.0
229,Bahia Honda,CU,2020-01-04 19:48:21,22.9,-83.16,83.21,70,43,8.28,light rain,0.0,0.0
230,Horsham,AU,2020-01-04 19:48:21,-36.71,142.2,54.12,65,100,12.41,light rain,0.0,0.0
231,Arraial Do Cabo,BR,2020-01-04 19:48:21,-22.97,-42.02,77.0,94,75,4.7,light rain,0.0,0.0
232,Aklavik,CA,2020-01-04 19:48:22,68.22,-135.01,-22.0,74,40,6.93,scattered clouds,0.0,0.0
233,Bandarbeyla,SO,2020-01-04 19:43:30,9.49,50.81,77.4,80,57,14.81,broken clouds,0.0,0.0
234,Koumac,NC,2020-01-04 19:48:22,-20.56,164.28,75.06,70,0,5.95,clear sky,0.0,0.0
235,Lishui,CN,2020-01-04 19:48:22,28.45,119.91,51.46,97,97,2.53,overcast clouds,0.0,0.0
236,Roebourne,AU,2020-01-04 19:46:30,-20.77,117.15,81.91,65,100,13.33,overcast clouds,0.0,0.0
237,Pedro Velho,BR,2020-01-04 19:48:23,-6.44,-35.22,86.0,66,40,14.99,scattered clouds,0.0,0.0
238,Aurangabad,IN,2020-01-04 19:48:23,19.87,75.33,60.03,70,0,7.87,clear sky,0.0,0.0
239,Kavaratti,IN,2020-01-04 19:48:23,10.57,72.64,80.37,69,66,8.88,broken clouds,0.0,0.0
240,Hanzhong,CN,2020-01-04 19:48:23,33.08,107.03,39.76,93,100,3.83,light rain,0.0,0.0
241,Bud,NO,2020-01-04 19:48:23,62.91,6.91,37.4,69,75,10.29,broken clouds,0.0,0.0
242,Fulnek,CZ,2020-01-04 19:48:24,49.71,17.9,39.0,95,75,18.34,broken clouds,0.0,0.0
243,Ous,RU,2020-01-04 19:48:24,60.91,61.52,29.25,87,100,9.01,overcast clouds,0.0,0.0
244,Coahuayana,MX,2020-01-04 19:45:12,18.62,-100.35,90.01,25,0,3.42,clear sky,0.0,0.0
245,Linxia,CN,2020-01-04 19:48:24,35.6,103.21,23.43,90,100,3.51,light snow,0.0,0.0
246,Yerbogachen,RU,2020-01-04 19:45:01,61.28,108.01,-2.11,93,84,6.73,broken clouds,0.0,0.0
247,Hofn,IS,2020-01-04 19:48:24,64.25,-15.21,45.07,74,67,37.24,broken clouds,0.0,0.0
248,Povenets,RU,2020-01-04 19:48:24,62.85,34.83,25.09,97,100,2.21,light snow,0.0,0.0
249,Nova Olimpia,BR,2020-01-04 19:46:01,-14.8,-57.29,86.5,64,100,4.07,overcast clouds,0.0,0.0
250,Deputatskiy,RU,2020-01-04 19:48:25,69.3,139.9,-8.72,86,100,2.1,overcast clouds,0.0,0.0
251,Saint-Francois,FR,2020-01-04 19:48:25,46.42,3.91,35.6,74,20,5.82,few clouds,0.0,0.0
252,Airai,TL,2020-01-04 19:48:25,-8.93,125.41,69.01,80,94,5.53,overcast clouds,0.0,0.0
253,Ca Mau,VN,2020-01-04 19:48:25,9.18,105.15,73.42,83,99,5.39,overcast clouds,0.0,0.0
254,Comodoro Rivadavia,AR,2020-01-04 19:45:12,-45.87,-67.48,68.0,40,40,13.87,scattered clouds,0.0,0.0
255,Petropavlovsk-Kamchatskiy,RU,2020-01-04 19:48:26,53.05,158.65,19.4,79,40,4.47,scattered clouds,0.0,0.0
256,Udachnyy,RU,2020-01-04 19:48:26,66.42,112.4,-23.8,74,0,4.47,clear sky,0.0,0.0
257,Karaton,ID,2020-01-04 19:43:34,-6.34,106.1,81.0,88,75,4.7,broken clouds,0.0,0.0
258,Belyy Gorodok,RU,2020-01-04 19:48:26,56.97,37.51,32.32,86,100,8.59,overcast clouds,0.0,0.0
259,Riorges,FR,2020-01-04 19:48:26,46.04,4.03,37.99,74,20,5.82,few clouds,0.0,0.0
260,Ust-Maya,RU,2020-01-04 19:48:27,60.42,134.54,-29.16,97,51,2.51,broken clouds,0.0,0.0
261,Zinder,NE,2020-01-04 19:48:27,13.81,8.99,60.44,27,0,14.03,clear sky,0.0,0.0
262,Bilasipara,IN,2020-01-04 19:48:27,26.2,90.29,55.02,93,0,1.66,light rain,0.0,0.0
263,Halifax,CA,2020-01-04 19:47:36,44.65,-63.58,41.0,84,90,4.7,overcast clouds,0.0,0.0
264,Dingle,PH,2020-01-04 19:48:27,11.0,122.67,71.56,94,4,10.02,light rain,0.0,0.0
265,Tomatlan,MX,2020-01-04 19:48:27,19.93,-105.25,86.68,21,49,5.01,scattered clouds,0.0,0.0
266,Atambua,ID,2020-01-04 19:48:28,-9.11,124.89,75.85,81,100,0.51,overcast clouds,0.0,0.0
267,Pevek,RU,2020-01-04 19:45:03,69.7,170.27,-5.69,64,0,2.66,clear sky,0.0,0.0
268,Freeport,BS,2020-01-04 19:48:28,26.54,-78.7,82.4,78,75,16.11,broken clouds,0.0,0.0
269,Xuddur,SO,2020-01-04 19:48:28,4.12,43.89,74.75,71,18,12.01,few clouds,0.0,0.0
270,Havre-Saint-Pierre,CA,2020-01-04 19:48:29,50.23,-63.6,23.0,85,1,3.36,clear sky,0.0,0.0
271,Merauke,ID,2020-01-04 19:48:29,-8.49,140.4,77.14,86,100,3.91,overcast clouds,0.0,0.0
272,Marshall,US,2020-01-04 19:48:29,39.12,-93.2,41.0,41,0,8.05,clear sky,0.0,0.0
273,Pedasi,PA,2020-01-04 19:48:29,7.53,-80.03,83.05,71,63,6.22,broken clouds,0.0,0.0
274,Orsha,BY,2020-01-04 19:48:29,54.51,30.43,31.69,89,65,11.21,broken clouds,0.0,0.0
275,Saint George,GR,2020-01-04 19:44:29,39.45,22.34,43.0,80,75,1.03,broken clouds,0.0,0.0
276,Wahiawa,US,2020-01-04 19:48:29,21.5,-158.02,75.2,88,90,23.04,moderate rain,0.0,0.0
277,Mulchen,CL,2020-01-04 19:48:30,-37.72,-72.23,82.13,17,0,11.3,clear sky,0.0,0.0
278,Sarandi,BR,2020-01-04 19:48:30,-27.94,-52.92,78.8,61,75,16.11,broken clouds,0.0,0.0
279,Acari,BR,2020-01-04 19:48:30,-6.44,-36.64,89.73,30,92,11.61,overcast clouds,0.0,0.0
280,Maloy,ID,2020-01-04 19:48:30,1.0,118.1,72.7,98,91,2.98,light rain,0.0,0.0
281,Teruel,ES,2020-01-04 19:48:30,40.34,-1.11,48.2,93,3,5.82,clear sky,0.0,0.0
282,Herat,AF,2020-01-04 19:48:31,34.35,62.22,42.8,93,90,2.24,light rain,0.0,0.0
283,Kushiro,JP,2020-01-04 19:48:31,43.11,144.15,16.93,65,0,6.26,clear sky,0.0,0.0
284,Santa Marta,CO,2020-01-04 19:43:39,11.24,-74.21,91.4,55,20,6.93,few clouds,0.0,0.0
285,Khatanga,RU,2020-01-04 19:44:16,71.98,102.47,-18.11,85,0,8.79,clear sky,0.0,0.0
286,Vitim,RU,2020-01-04 19:48:31,59.44,112.57,16.3,93,100,6.78,light snow,0.0,0.0
287,Baykit,RU,2020-01-04 19:48:32,61.68,96.39,11.86,91,100,7.23,overcast clouds,0.0,0.0
288,Pascagoula,US,2020-01-04 19:48:32,30.37,-88.56,62.6,42,1,12.75,clear sky,0.0,0.0
289,Chapais,CA,2020-01-04 19:48:32,49.78,-74.86,10.4,78,90,3.36,light snow,0.0,0.0
290,Martapura,ID,2020-01-04 19:48:32,-3.41,114.85,74.86,93,85,0.92,light rain,0.0,0.0
291,Montepuez,MZ,2020-01-04 19:48:33,-13.13,39.0,73.04,92,100,5.3,light rain,0.0,0.0
292,Shintomi,JP,2020-01-04 19:48:33,32.08,131.47,42.98,58,0,5.77,clear sky,0.0,0.0
293,Lagunas,PE,2020-01-04 19:48:33,-5.23,-75.68,90.95,49,39,4.97,scattered clouds,0.0,0.0
294,Te Anau,NZ,2020-01-04 19:48:33,-45.41,167.72,47.88,82,100,8.14,moderate rain,0.0,0.0
295,Antsohihy,MG,2020-01-04 19:48:33,-14.88,47.99,74.84,92,100,1.32,overcast clouds,0.0,0.0
296,Rawson,AR,2020-01-04 19:48:33,-43.3,-65.11,59.2,76,0,16.04,clear sky,0.0,0.0
297,Kirkuk,IQ,2020-01-04 19:44:05,35.47,44.4,43.48,81,25,1.52,light rain,0.0,0.0
298,Burns Lake,CA,2020-01-04 19:45:21,54.23,-125.76,27.95,81,86,5.39,overcast clouds,0.0,0.0
299,Whitehorse,CA,2020-01-04 19:48:34,60.72,-135.06,-2.0,84,75,0.96,light snow,0.0,0.0
300,Smithers,CA,2020-01-04 19:48:34,54.78,-127.17,21.2,92,75,8.05,broken clouds,0.0,0.0
301,Okato,NZ,2020-01-04 19:48:34,-39.19,173.88,55.0,65,100,10.0,overcast clouds,0.0,0.0
302,Manoel Urbano,BR,2020-01-04 19:48:34,-8.84,-69.26,80.58,90,100,0.18,light rain,0.0,0.0
303,Parati,BR,2020-01-04 19:48:34,-20.51,-54.63,86.0,62,40,14.99,shower rain,0.0,0.0
304,Biak,ID,2020-01-04 19:48:35,-0.91,122.88,81.61,79,100,13.47,moderate rain,0.0,0.0
305,Dong Hoi,VN,2020-01-04 19:48:35,17.48,106.6,67.57,95,91,6.26,light rain,0.0,0.0
306,Kamenka,MD,2020-01-04 19:44:57,48.03,28.7,35.01,89,98,5.61,overcast clouds,0.0,0.0
307,La Ronge,CA,2020-01-04 19:48:35,55.1,-105.3,17.6,85,90,17.22,light snow,0.0,0.0
308,Opuwo,NA,2020-01-04 19:48:35,-18.06,13.84,66.52,76,55,9.71,light rain,0.0,0.0
309,Vilkaviskis,LT,2020-01-04 19:48:35,54.65,23.03,32.18,84,38,10.31,scattered clouds,0.0,0.0
310,Mahebourg,MU,2020-01-04 19:48:36,-20.41,57.7,79.0,94,40,6.85,scattered clouds,0.0,0.0
311,Sibu,MY,2020-01-04 19:48:36,2.29,111.83,77.0,94,75,3.36,broken clouds,0.0,0.0
312,Mingshui,CN,2020-01-04 19:48:36,22.81,109.89,62.71,77,66,4.07,broken clouds,0.0,0.0
313,Veranopolis,BR,2020-01-04 19:48:36,-28.94,-51.55,84.99,62,70,4.14,light rain,0.0,0.0
314,Itoman,JP,2020-01-04 19:48:37,26.12,127.67,64.4,77,75,8.05,broken clouds,0.0,0.0
315,Madimba,CM,2020-01-04 19:48:37,4.42,9.93,82.4,83,20,2.55,few clouds,0.0,0.0
316,Sechura,PE,2020-01-04 19:48:29,-5.56,-80.82,70.3,92,100,18.23,overcast clouds,0.0,0.0
317,Vila Velha,BR,2020-01-04 19:44:35,-3.71,-38.6,86.0,58,20,12.75,few clouds,0.0,0.0
318,Quang Ngai,VN,2020-01-04 19:48:37,15.12,108.8,74.46,71,100,9.51,light rain,0.0,0.0
319,Rayevskiy,RU,2020-01-04 19:48:37,54.07,54.94,26.83,90,100,13.33,overcast clouds,0.0,0.0
320,Hamada,JP,2020-01-04 19:48:37,34.9,132.08,42.01,34,100,1.01,light rain,0.0,0.0
321,Iralaya,HN,2020-01-04 19:48:38,15.0,-83.23,82.35,66,0,5.61,clear sky,0.0,0.0
322,Hami,CN,2020-01-04 19:48:38,42.84,93.51,16.09,56,0,1.95,clear sky,0.0,0.0
323,Aswan,EG,2020-01-04 19:48:38,24.09,32.9,47.93,56,0,10.71,clear sky,0.0,0.0
324,Skjervoy,NO,2020-01-04 19:48:38,70.03,20.97,31.24,66,100,30.11,light snow,0.0,0.0
325,Awjilah,LY,2020-01-04 19:48:38,29.14,21.3,50.45,73,0,8.95,clear sky,0.0,0.0
326,Santa Cruz De La Palma,ES,2020-01-04 19:48:38,28.68,-17.76,66.2,68,75,10.29,broken clouds,0.0,0.0
327,Key Largo,US,2020-01-04 19:45:51,25.09,-80.45,88.0,62,1,16.11,clear sky,0.0,0.0
328,Norman Wells,CA,2020-01-04 19:44:11,65.28,-126.83,-18.4,68,90,6.93,light snow,0.0,0.0
329,Mana,NG,2020-01-04 19:44:26,13.03,5.27,65.17,23,0,11.9,clear sky,0.0,0.0
330,Bobbili,IN,2020-01-04 19:48:39,18.58,83.35,68.68,88,89,1.28,overcast clouds,0.0,0.0
331,Puro,PH,2020-01-04 19:48:39,13.13,123.76,75.72,87,79,18.07,light rain,0.0,0.0
332,Neyshabur,IR,2020-01-04 19:48:40,36.21,58.79,37.0,71,34,10.56,scattered clouds,0.0,0.0
333,Lasem,ID,2020-01-04 19:48:40,-6.99,112.52,75.6,90,93,7.56,overcast clouds,0.0,0.0
334,Camacha,PT,2020-01-04 19:48:40,33.08,-16.33,62.6,72,40,6.93,scattered clouds,0.0,0.0
335,Eyrarbakki,IS,2020-01-04 19:48:40,63.86,-21.15,39.2,80,75,18.34,light intensity shower rain,0.0,0.0
336,Pangnirtung,CA,2020-01-04 19:46:25,66.15,-65.72,1.4,77,75,6.93,light snow,0.0,0.0
337,Sao Felix Do Xingu,BR,2020-01-04 19:48:40,-6.64,-51.99,79.79,82,86,2.66,overcast clouds,0.0,0.0
338,Lata,IN,2020-01-04 19:48:40,30.78,78.62,-0.81,62,39,9.95,scattered clouds,0.0,0.0
339,Shahrud,IR,2020-01-04 19:48:41,36.42,54.97,32.25,97,100,2.93,light snow,0.0,0.0
340,Mincivan,AZ,2020-01-04 19:48:41,39.03,46.72,30.65,92,100,1.95,light snow,0.0,0.0
341,Sohag,EG,2020-01-04 19:48:41,26.55,31.7,45.23,51,0,11.01,clear sky,0.0,0.0
342,Henties Bay,NA,2020-01-04 19:48:41,-22.12,14.28,62.01,90,100,3.0,overcast clouds,0.0,0.0
343,Vao,EE,2020-01-04 19:48:41,59.1,26.19,31.17,79,1,10.22,clear sky,0.0,0.0
344,Berlevag,NO,2020-01-04 19:46:22,70.86,29.09,25.59,73,100,32.3,light snow,0.0,0.0
345,Qarqin,AF,2020-01-04 19:48:42,37.41,66.03,44.24,62,0,3.98,clear sky,0.0,0.0
346,Auki,NG,2020-01-04 19:48:42,12.18,6.51,64.15,23,51,14.05,broken clouds,0.0,0.0
347,Hamilton,CA,2020-01-04 19:44:50,43.26,-79.87,37.99,80,90,6.93,light rain,0.0,0.0
348,Karatau,KZ,2020-01-04 19:48:42,43.18,70.46,37.0,100,100,2.01,overcast clouds,0.0,0.0
349,Adolfo Lopez Mateos,MX,2020-01-04 19:48:42,26.8,-109.39,75.99,34,0,1.99,clear sky,0.0,0.0
350,Palestina,CO,2020-01-04 19:48:43,1.72,-76.13,72.46,77,77,3.42,light rain,0.0,0.0
351,Santa Cruz,BR,2020-01-04 19:48:43,-6.22,-36.02,80.49,63,28,10.45,scattered clouds,0.0,0.0
352,Lewistown,US,2020-01-04 19:47:11,40.39,-90.15,33.01,86,90,14.99,overcast clouds,0.0,0.0
353,Eenhana,NA,2020-01-04 19:48:43,-17.48,16.34,69.8,94,100,6.93,light rain,0.0,0.0
354,Ambilobe,MG,2020-01-04 19:48:43,-13.19,49.05,79.81,82,73,6.04,broken clouds,0.0,0.0
355,Palauig,PH,2020-01-04 19:48:44,15.44,119.9,71.44,76,61,6.24,broken clouds,0.0,0.0
356,Sidi Ali,DZ,2020-01-04 19:48:44,36.1,0.42,46.81,91,0,2.06,clear sky,0.0,0.0
357,Champerico,MX,2020-01-04 19:48:44,16.38,-93.6,73.4,60,90,23.04,overcast clouds,0.0,0.0
358,Chokurdakh,RU,2020-01-04 19:48:44,70.62,147.9,-14.71,98,73,0.81,broken clouds,0.0,0.0
359,Ponnani,IN,2020-01-04 19:48:44,10.77,75.93,77.0,83,40,2.24,haze,0.0,0.0
360,Dos Quebradas,HN,2020-01-04 19:48:44,14.8,-86.11,78.78,53,34,6.02,scattered clouds,0.0,0.0
361,Maluso,PH,2020-01-04 19:48:45,6.54,121.88,71.56,93,10,3.27,clear sky,0.0,0.0
362,La Reforma,MX,2020-01-04 19:48:45,25.08,-108.06,82.99,31,5,5.82,clear sky,0.0,0.0
363,Simpang,ID,2020-01-04 19:48:45,4.36,96.17,73.06,88,2,2.37,clear sky,0.0,0.0
364,Nexo,DK,2020-01-04 19:48:45,55.06,15.13,39.2,55,0,18.34,clear sky,0.0,0.0
365,Murgab,TM,2020-01-04 19:48:45,37.5,61.97,39.2,86,90,6.93,overcast clouds,0.0,0.0
366,Kyren,RU,2020-01-04 19:48:45,51.68,102.13,4.5,74,18,1.81,few clouds,0.0,0.0
367,Koboko,UG,2020-01-04 19:48:46,3.41,30.96,74.53,54,82,3.76,broken clouds,0.0,0.0
368,Maceio,BR,2020-01-04 19:48:46,-9.67,-35.74,86.0,62,90,18.34,overcast clouds,0.0,0.0
369,Blagoyevo,RU,2020-01-04 19:48:46,63.37,47.92,27.28,91,100,9.13,overcast clouds,0.0,0.0
370,Makinsk,KZ,2020-01-04 19:48:46,52.63,70.42,27.68,91,100,17.96,overcast clouds,0.0,0.0
371,Mlowo,TZ,2020-01-04 19:48:46,-9.01,33.0,61.81,94,100,2.24,overcast clouds,0.0,0.0
372,Yinchuan,CN,2020-01-04 19:48:46,38.48,106.21,27.05,85,100,4.5,overcast clouds,0.0,0.0
373,Elizabeth City,US,2020-01-04 19:48:47,36.3,-76.22,63.0,88,90,8.05,overcast clouds,0.0,0.0
374,La Palma,CO,2020-01-04 19:48:47,5.36,-74.39,80.11,69,26,3.8,scattered clouds,0.0,0.0
375,Marienburg,DE,2020-01-04 19:48:47,52.12,9.98,39.2,93,75,8.05,broken clouds,0.0,0.0
376,Mariental,BR,2020-01-04 19:48:47,-25.72,-49.65,64.99,100,90,9.17,light rain,0.0,0.0
377,Belmonte,PT,2020-01-04 19:45:45,40.36,-7.35,46.99,28,0,10.0,clear sky,0.0,0.0
378,Amahai,ID,2020-01-04 19:48:47,-3.31,129.0,81.5,79,100,7.72,overcast clouds,0.0,0.0
379,Arman,RU,2020-01-04 19:48:48,59.7,150.17,22.59,71,100,20.09,overcast clouds,0.0,0.0
380,Zemio,CF,2020-01-04 19:48:48,5.02,25.13,72.99,35,70,4.61,broken clouds,0.0,0.0
381,Krasnokamensk,RU,2020-01-04 19:48:48,50.1,118.04,4.75,80,54,3.36,broken clouds,0.0,0.0
382,Qandala,SO,2020-01-04 19:48:48,11.47,49.87,74.5,79,90,8.08,light rain,0.0,0.0
383,Gari,RU,2020-01-04 19:48:48,59.43,62.35,28.76,87,100,11.72,overcast clouds,0.0,0.0
384,Ostrovnoy,RU,2020-01-04 19:48:49,68.05,39.51,24.31,86,100,25.72,light snow,0.0,0.0
385,Abu Zabad,SD,2020-01-04 19:48:49,12.35,29.25,61.93,19,100,16.15,overcast clouds,0.0,0.0
386,Boa Vista,BR,2020-01-04 19:48:49,2.82,-60.67,95.0,32,75,6.93,broken clouds,0.0,0.0
387,Sao Filipe,CV,2020-01-04 19:48:49,14.9,-24.5,70.59,77,39,10.83,scattered clouds,0.0,0.0
388,Terrace,CA,2020-01-04 19:48:46,54.52,-128.61,36.0,94,90,12.75,light shower snow,0.0,0.0
389,Chumikan,RU,2020-01-04 19:48:32,54.72,135.31,-7.35,76,18,8.39,few clouds,0.0,0.0
390,Rio Piracicaba,BR,2020-01-04 19:48:50,-19.93,-43.17,72.63,95,100,4.72,moderate rain,0.0,0.0
391,Aquiraz,BR,2020-01-04 19:48:50,-3.9,-38.39,86.0,58,20,12.75,few clouds,0.0,0.0
392,Manali,IN,2020-01-04 19:48:50,32.25,77.19,23.34,57,1,7.96,clear sky,0.0,0.0
393,Sungaipenuh,ID,2020-01-04 19:48:50,-2.08,101.38,62.98,99,100,2.44,overcast clouds,0.0,0.0
394,Praia Da Vitoria,PT,2020-01-04 19:48:40,38.73,-27.07,64.4,88,40,20.92,scattered clouds,0.0,0.0
395,Goderich,CA,2020-01-04 19:43:56,43.74,-81.71,33.01,73,94,4.0,light snow,0.0,0.0
396,Kutum,SD,2020-01-04 19:48:51,14.2,24.66,54.39,27,0,5.01,clear sky,0.0,0.0
397,Provideniya,RU,2020-01-04 19:44:04,64.42,-173.23,-11.99,75,90,10.38,overcast clouds,0.0,0.0
398,Linxi,CN,2020-01-04 19:48:51,23.65,116.7,59.0,100,82,2.24,mist,0.0,0.0
399,El Dorado,TT,2020-01-04 19:48:19,10.65,-61.37,88.0,55,40,12.75,scattered clouds,0.0,0.0
400,Isoka,ZM,2020-01-04 19:48:52,-10.15,32.64,66.13,89,100,0.31,overcast clouds,0.0,0.0
401,Rio Gallegos,AR,2020-01-04 19:46:30,-51.62,-69.22,62.6,52,40,20.8,scattered clouds,0.0,0.0
402,Hadrut,AZ,2020-01-04 19:48:52,39.52,47.03,34.11,94,100,0.49,overcast clouds,0.0,0.0
403,San Juan,AR,2020-01-04 19:45:10,-31.54,-68.53,99.48,16,0,8.52,clear sky,0.0,0.0
404,Noumea,NC,2020-01-04 19:46:20,-22.28,166.46,77.0,68,7,3.36,clear sky,0.0,0.0
405,Turayf,SA,2020-01-04 19:48:53,31.68,38.65,44.6,87,40,4.7,scattered clouds,0.0,0.0
406,Ciudad Bolivar,VE,2020-01-04 19:48:53,8.12,-63.55,88.7,39,1,9.91,clear sky,0.0,0.0
407,Danjiangkou,CN,2020-01-04 19:48:53,32.54,111.51,44.69,93,100,9.51,light rain,0.0,0.0
408,Assiniboia,CA,2020-01-04 19:48:53,49.63,-105.99,41.0,64,100,27.89,overcast clouds,0.0,0.0
409,Gubkinskiy,RU,2020-01-04 19:48:54,64.43,76.5,18.97,94,100,20.89,light snow,0.0,0.0
410,Foshan,CN,2020-01-04 19:48:54,23.02,113.11,70.0,82,20,4.81,mist,0.0,0.0
411,Viedma,AR,2020-01-04 19:48:54,-40.81,-62.99,65.8,59,2,17.74,clear sky,0.0,0.0
412,Ola,RU,2020-01-04 19:48:54,59.58,151.3,15.46,78,52,16.46,broken clouds,0.0,0.0
413,Saint-Augustin,CA,2020-01-04 19:48:54,45.63,-73.98,33.01,96,90,13.87,light snow,0.0,0.0
414,Tenerife,CO,2020-01-04 19:48:55,9.9,-74.86,84.04,65,100,12.91,overcast clouds,0.0,0.0
415,Opoczno,PL,2020-01-04 19:48:55,51.38,20.29,37.0,89,96,5.99,light snow,0.0,0.0
416,Mazamari,PE,2020-01-04 19:48:55,-11.33,-74.53,68.47,95,100,2.04,moderate rain,0.0,0.0
417,Mogadishu,SO,2020-01-04 19:48:55,2.04,45.34,80.65,83,0,15.14,clear sky,0.0,0.0
418,Rundu,NA,2020-01-04 19:48:55,-17.91,19.77,66.2,87,100,6.31,light rain,0.0,0.0
419,Kondagaon,IN,2020-01-04 19:48:55,19.59,81.66,58.5,96,0,3.06,clear sky,0.0,0.0
420,Teya,MX,2020-01-04 19:48:56,21.05,-89.07,78.01,65,90,11.41,overcast clouds,0.0,0.0
421,Paka,CF,2020-01-04 19:48:56,4.15,15.03,70.05,34,73,2.17,broken clouds,0.0,0.0
422,Cabra,ES,2020-01-04 19:48:56,37.47,-4.43,46.4,87,6,2.24,clear sky,0.0,0.0
423,Evensk,RU,2020-01-04 19:48:56,61.92,159.24,8.55,50,66,8.12,broken clouds,0.0,0.0
424,Otradnoye,RU,2020-01-04 19:48:56,59.77,30.8,34.0,86,90,15.66,overcast clouds,0.0,0.0
425,The Valley,AI,2020-01-04 19:48:56,18.22,-63.06,84.2,61,20,11.41,few clouds,0.0,0.0
426,Jacareacanga,BR,2020-01-04 19:46:14,-6.22,-57.76,82.53,68,64,2.44,broken clouds,0.0,0.0
427,Katsuura,JP,2020-01-04 19:44:14,33.93,134.5,46.4,61,75,13.87,broken clouds,0.0,0.0
428,Mata,PT,2020-01-04 19:48:57,40.68,-7.46,46.0,83,0,1.99,clear sky,0.0,0.0
429,Vallenar,CL,2020-01-04 19:46:23,-28.58,-70.76,70.9,54,0,10.54,clear sky,0.0,0.0
430,Seguela,CI,2020-01-04 19:48:58,7.96,-6.67,75.63,15,43,3.85,scattered clouds,0.0,0.0
431,Beloha,MG,2020-01-04 19:48:37,-25.17,45.06,73.22,85,0,13.18,clear sky,0.0,0.0
432,Lasa,CY,2020-01-04 19:48:58,34.92,32.53,59.0,72,75,14.99,broken clouds,0.0,0.0
433,Blackburn,GB,2020-01-04 19:48:58,53.75,-2.48,46.0,100,75,11.41,light intensity drizzle rain,0.0,0.0
434,Umm Kaddadah,SD,2020-01-04 19:48:58,13.6,26.69,60.87,20,0,13.58,clear sky,0.0,0.0
435,Aykino,RU,2020-01-04 19:48:58,62.22,49.99,31.17,90,100,7.94,overcast clouds,0.0,0.0
436,San Jose,HN,2020-01-04 19:48:58,14.25,-87.96,77.9,52,100,11.21,overcast clouds,0.0,0.0
437,Bezhta,RU,2020-01-04 19:48:59,42.13,46.13,22.17,63,0,6.55,clear sky,0.0,0.0
438,Gravdal,NO,2020-01-04 19:47:23,59.79,5.78,36.0,76,75,5.82,broken clouds,0.0,0.0
439,Mkuranga,TZ,2020-01-04 19:48:59,-7.12,39.21,80.6,83,20,6.93,few clouds,0.0,0.0
440,Cutervo,PE,2020-01-04 19:48:59,-6.38,-78.82,66.76,62,87,9.75,overcast clouds,0.0,0.0
441,Moose Factory,CA,2020-01-04 19:48:59,51.26,-80.61,5.0,92,90,3.36,overcast clouds,0.0,0.0
442,Bathsheba,BB,2020-01-04 19:48:24,13.22,-59.52,82.4,65,40,16.11,shower rain,0.0,0.0
443,Dunedin,NZ,2020-01-04 19:49:00,-45.87,170.5,51.01,91,100,13.0,moderate rain,0.0,0.0
444,Valparaiso,US,2020-01-04 19:49:00,41.47,-87.06,34.0,86,90,17.22,overcast clouds,0.0,0.0
445,Mfou,CM,2020-01-04 19:49:00,3.72,11.64,71.6,78,0,1.12,clear sky,0.0,0.0
446,Preobrazheniye,RU,2020-01-04 19:49:01,42.9,133.91,10.42,73,0,7.52,clear sky,0.0,0.0
447,Rawlins,US,2020-01-04 19:49:01,41.79,-107.24,41.0,44,1,4.7,clear sky,0.0,0.0
448,Ipixuna,BR,2020-01-04 19:49:01,-1.76,-48.8,82.4,78,75,10.29,broken clouds,0.0,0.0
449,Drahovo,UA,2020-01-04 19:49:01,48.24,23.55,26.01,97,100,1.12,light snow,0.0,0.0
450,Richards Bay,ZA,2020-01-04 19:49:01,-28.77,32.06,79.07,78,95,25.43,overcast clouds,0.0,0.0
451,Torrington,US,2020-01-04 19:49:01,42.06,-104.18,53.6,36,1,20.8,clear sky,0.0,0.0
452,Flagstaff,US,2020-01-04 19:44:41,35.2,-111.65,55.0,23,1,8.05,clear sky,0.0,0.0
453,Uribia,CO,2020-01-04 19:49:02,11.71,-72.27,86.11,49,0,12.24,clear sky,0.0,0.0
454,Praia,BR,2020-01-04 19:49:02,-20.25,-43.81,77.0,73,75,3.36,broken clouds,0.0,0.0
455,Teguise,ES,2020-01-04 19:46:36,29.06,-13.56,64.4,77,20,12.75,few clouds,0.0,0.0
456,Riachao,BR,2020-01-04 19:49:02,-7.36,-46.62,71.37,94,100,4.23,light rain,0.0,0.0
457,Tiksi,RU,2020-01-04 19:49:02,71.64,128.87,-16.85,86,77,7.58,broken clouds,0.0,0.0
458,Rocha,UY,2020-01-04 19:48:26,-34.48,-54.34,76.86,52,0,14.92,clear sky,0.0,0.0
459,Mpika,ZM,2020-01-04 19:49:03,-11.84,31.4,63.75,96,100,5.03,light rain,0.0,0.0
460,San Quintin,PH,2020-01-04 19:49:03,17.54,120.52,68.83,79,65,4.88,broken clouds,0.0,0.0
461,Talaya,RU,2020-01-04 19:49:03,55.79,84.89,24.8,85,40,20.13,light shower snow,0.0,0.0
462,Port-Gentil,GA,2020-01-04 19:49:03,-0.72,8.78,78.8,94,90,6.93,thunderstorm with light rain,0.0,0.0
463,Lagos,NG,2020-01-04 19:44:18,6.46,3.39,77.0,65,100,2.24,haze,0.0,0.0
464,Bandar-E Lengeh,IR,2020-01-04 19:49:03,26.56,54.88,73.18,66,0,5.26,clear sky,0.0,0.0
465,Shihezi,CN,2020-01-04 19:49:04,44.3,86.03,8.85,94,100,0.98,overcast clouds,0.0,0.0
466,Gerash,IR,2020-01-04 19:49:04,27.67,54.14,60.8,72,75,5.99,broken clouds,0.0,0.0
467,Hambantota,LK,2020-01-04 19:44:20,6.12,81.12,77.0,100,20,5.82,few clouds,0.0,0.0
468,Tessalit,ML,2020-01-04 19:49:04,20.2,1.01,55.83,26,44,10.63,scattered clouds,0.0,0.0
469,Narsaq,GL,2020-01-04 19:45:32,60.91,-46.05,26.6,86,75,3.51,light snow,0.0,0.0
470,Chandbali,IN,2020-01-04 19:49:04,20.77,86.74,61.14,87,14,5.26,few clouds,0.0,0.0
471,Jiangyou,CN,2020-01-04 19:49:04,31.78,104.73,34.36,92,99,2.08,overcast clouds,0.0,0.0
472,Kuching,MY,2020-01-04 19:49:05,1.56,110.34,77.0,100,75,3.36,broken clouds,0.0,0.0
473,Kollam,IN,2020-01-04 19:49:05,8.88,76.6,80.6,88,75,8.63,haze,0.0,0.0
474,Jumla,NP,2020-01-04 19:49:05,29.28,82.18,17.22,85,53,4.68,broken clouds,0.0,0.0
475,Hvide Sande,DK,2020-01-04 19:49:05,56.01,8.13,39.2,73,0,9.17,clear sky,0.0,0.0
476,Bayir,TR,2020-01-04 19:49:05,37.27,28.22,46.4,49,0,9.17,clear sky,0.0,0.0
477,Podgornoye,RU,2020-01-04 19:49:06,57.79,82.64,21.29,92,100,11.86,light snow,0.0,0.0
478,Egvekinot,RU,2020-01-04 19:49:06,66.32,-179.17,-12.78,59,0,11.68,clear sky,0.0,0.0
479,Cap-Aux-Meules,CA,2020-01-04 19:49:06,47.38,-61.86,32.0,88,90,5.82,overcast clouds,0.0,0.0
480,Vila Franca Do Campo,PT,2020-01-04 19:49:06,37.72,-25.43,62.6,88,20,9.17,few clouds,0.0,0.0
481,Benjamin Constant,BR,2020-01-04 19:49:06,-4.38,-70.03,89.6,66,40,4.7,scattered clouds,0.0,0.0
482,Vinh,VN,2020-01-04 19:47:05,18.67,105.69,67.3,93,86,1.52,overcast clouds,0.0,0.0
483,Nantucket,US,2020-01-04 19:49:07,41.28,-70.1,46.4,100,90,6.93,light rain,0.0,0.0
484,Windhoek,NA,2020-01-04 19:49:05,-22.57,17.08,77.0,41,100,3.36,light rain,0.0,0.0
485,Dudinka,RU,2020-01-04 19:49:07,69.41,86.18,-0.4,77,100,22.37,overcast clouds,0.0,0.0
486,Solms,DE,2020-01-04 19:49:07,50.53,8.41,44.01,75,40,6.93,scattered clouds,0.0,0.0
487,Elblag,PL,2020-01-04 19:49:07,54.15,19.41,36.0,86,75,14.99,broken clouds,0.0,0.0
488,Ornes,FR,2020-01-04 19:49:07,49.25,5.47,43.0,86,75,6.93,broken clouds,0.0,0.0
489,Nova Soure,BR,2020-01-04 19:49:08,-11.24,-38.48,85.98,47,100,6.91,overcast clouds,0.0,0.0
490,Oussouye,SN,2020-01-04 19:49:08,12.49,-16.54,80.6,50,0,2.24,clear sky,0.0,0.0
491,Lang Suan,TH,2020-01-04 19:49:08,9.95,99.07,73.15,94,64,3.91,light rain,0.0,0.0
492,Luena,AO,2020-01-04 19:49:08,-11.78,19.91,63.23,90,100,3.2,overcast clouds,0.0,0.0
493,Springbok,ZA,2020-01-04 19:48:49,-29.67,17.88,59.36,66,0,12.37,clear sky,0.0,0.0
494,Rodrigues Alves,BR,2020-01-04 19:49:08,-7.74,-72.65,87.8,62,75,6.93,broken clouds,0.0,0.0
495,Peleduy,RU,2020-01-04 19:49:09,59.63,112.75,17.98,93,100,7.81,light snow,0.0,0.0
496,Kodiak,US,2020-01-04 19:46:09,39.95,-94.76,43.0,44,1,10.29,clear sky,0.0,0.0
497,Esperance,AU,2020-01-04 19:49:09,-33.86,121.89,55.4,71,0,10.29,clear sky,0.0,0.0
498,Sitka,US,2020-01-04 19:49:09,37.17,-99.65,53.01,46,0,5.99,clear sky,0.0,0.0
499,Panlaitan,PH,2020-01-04 19:49:09,12.12,119.85,77.68,77,0,6.51,clear sky,0.0,0.0
500,Xichang,CN,2020-01-04 19:49:10,27.88,102.25,35.98,96,98,9.26,light rain,0.0,0.0
501,Clinton,US,2020-01-04 19:46:43,41.28,-72.53,50.0,93,90,1.95,light rain,0.0,0.0
502,Kodinsk,RU,2020-01-04 19:49:10,58.6,99.18,14.88,92,86,9.95,overcast clouds,0.0,0.0
503,Taksimo,RU,2020-01-04 19:49:10,56.36,114.84,-4.25,99,100,0.45,overcast clouds,0.0,0.0
504,Constantine,DZ,2020-01-04 19:49:10,36.36,6.61,42.8,93,75,2.24,broken clouds,0.0,0.0
505,Omboue,GA,2020-01-04 19:49:10,-1.57,9.26,76.48,93,100,3.11,light rain,0.0,0.0
506,Gwanda,ZW,2020-01-04 19:49:11,-20.94,29.0,76.69,30,0,8.84,clear sky,0.0,0.0
507,Kangaba,ML,2020-01-04 19:49:11,11.94,-8.41,66.78,11,6,4.83,clear sky,0.0,0.0
508,Quelimane,MZ,2020-01-04 19:49:11,-17.88,36.89,80.51,85,88,6.58,overcast clouds,0.0,0.0
509,Urucara,BR,2020-01-04 19:49:11,-2.54,-57.76,88.59,57,58,2.82,broken clouds,0.0,0.0
510,Santa Vitoria Do Palmar,BR,2020-01-04 19:49:11,-33.52,-53.37,74.25,64,13,12.35,few clouds,0.0,0.0
511,Dabakala,CI,2020-01-04 19:49:12,8.36,-4.43,75.11,16,63,4.38,broken clouds,0.0,0.0
512,Pundaguitan,PH,2020-01-04 19:49:12,6.37,126.17,77.23,81,0,8.86,clear sky,0.0,0.0
513,Kulunda,RU,2020-01-04 19:49:12,52.57,78.94,21.02,86,54,13.65,broken clouds,0.0,0.0
514,Inhambane,MZ,2020-01-04 19:49:12,-23.87,35.38,78.93,80,20,13.56,few clouds,0.0,0.0
515,Whittlesea,AU,2020-01-04 19:49:12,-37.51,145.12,60.01,67,90,17.22,light intensity shower rain,0.0,0.0
516,Asyut,EG,2020-01-04 19:49:13,27.18,31.19,44.15,56,0,10.65,clear sky,0.0,0.0
517,Vardo,US,2020-01-04 19:44:42,39.62,-77.74,57.99,71,90,17.22,overcast clouds,0.0,0.0
