City_ID,City,Country,Date,Lat,Lng,Max Temp,Humidity,Cloudiness,Wind Speed,Current Description,Rain inches(last 3hrs),Snow inches(last 3hrs)
0,Dhankuta,NP,2020-01-05 20:52:22,26.98,87.34,38.93,82,12,5.14,few clouds,0.0,0.0
1,Beringovskiy,RU,2020-01-05 20:55:55,63.05,179.32,-7.46,79,89,16.67,overcast clouds,0.0,0.0
2,Hithadhoo,MV,2020-01-05 20:55:55,-0.6,73.08,81.48,78,100,11.25,overcast clouds,0.0,0.0
3,Victoria,BN,2020-01-05 20:55:55,5.28,115.24,80.6,74,75,6.93,broken clouds,0.0,0.0
4,Port Elizabeth,US,2020-01-05 20:54:02,39.31,-74.98,43.0,48,90,10.29,overcast clouds,0.0,0.0
5,Mechetinskaya,RU,2020-01-05 20:52:24,46.77,40.45,38.19,63,100,4.45,light rain,0.19,0.0
6,Palmer,AU,2020-01-05 20:54:03,-34.85,139.16,61.0,62,1,6.93,clear sky,0.0,0.0
7,Aklavik,CA,2020-01-05 20:55:55,68.22,-135.01,-16.6,62,75,10.29,broken clouds,0.0,0.0
8,Llanes,ES,2020-01-05 20:52:24,43.42,-4.75,46.99,10,0,11.77,clear sky,0.0,0.0
9,Dalmatovo,RU,2020-01-05 20:52:24,56.26,62.94,18.39,93,0,9.78,clear sky,0.0,0.0
10,Kenai,US,2020-01-05 20:52:24,60.55,-151.26,0.0,76,1,5.82,clear sky,0.0,0.0
11,College,US,2020-01-05 20:52:24,64.86,-147.8,-20.99,66,75,1.25,light snow,0.0,0.0
12,Rikitea,PF,2020-01-05 20:54:03,-23.12,-134.97,76.03,78,67,15.41,broken clouds,0.0,0.0
13,Bulancak,TR,2020-01-05 20:52:24,40.94,38.23,39.2,93,20,1.12,few clouds,0.0,0.0
14,Kyshtovka,RU,2020-01-05 20:52:24,56.56,76.62,8.64,95,97,8.88,overcast clouds,0.0,0.0
15,Patiya,BD,2020-01-05 20:52:26,22.3,91.98,58.37,92,0,3.18,clear sky,0.0,0.0
16,Thompson,CA,2020-01-05 20:54:04,55.74,-97.86,5.0,92,90,6.93,light snow,0.0,0.0
17,Lata,IN,2020-01-05 20:55:56,30.78,78.62,13.3,71,100,5.93,overcast clouds,0.0,0.0
18,Rasipuram,IN,2020-01-05 20:52:26,11.46,78.19,71.73,91,35,6.29,scattered clouds,0.0,0.0
19,Bambous Virieux,MU,2020-01-05 20:54:04,-20.34,57.76,73.4,100,75,9.17,heavy intensity rain,0.0,0.0
20,Yellowknife,CA,2020-01-05 20:49:43,62.45,-114.38,-13.0,75,20,5.82,few clouds,0.0,0.0
21,Constitucion,MX,2020-01-05 20:55:56,23.99,-104.67,64.0,13,5,3.36,clear sky,0.0,0.0
22,Punta Arenas,CL,2020-01-05 20:54:04,-53.16,-70.91,55.4,54,40,29.97,scattered clouds,0.0,0.0
23,Port Alfred,ZA,2020-01-05 20:54:04,-33.59,26.89,68.0,91,50,7.05,scattered clouds,0.0,0.0
24,Ancud,CL,2020-01-05 20:55:58,-41.87,-73.83,59.0,58,75,12.75,broken clouds,0.0,0.0
25,Namibe,AO,2020-01-05 20:54:04,-15.19,12.15,73.89,90,79,11.88,broken clouds,0.0,0.0
26,Tuktoyaktuk,CA,2020-01-05 20:54:05,69.44,-133.03,-23.8,74,90,10.29,overcast clouds,0.0,0.0
27,Katsuura,JP,2020-01-05 20:54:05,33.93,134.5,37.4,73,40,5.82,scattered clouds,0.0,0.0
28,Bluff,AU,2020-01-05 20:54:05,-23.58,149.07,74.39,77,0,10.36,clear sky,0.0,0.0
29,Ust-Nera,RU,2020-01-05 20:55:58,64.57,143.24,-19.82,100,92,1.66,overcast clouds,0.0,0.0
30,Ushuaia,AR,2020-01-05 20:50:26,-54.81,-68.31,50.0,76,75,27.51,shower rain,0.0,0.0
31,Husavik,CA,2020-01-05 20:55:58,50.56,-96.99,28.99,69,37,10.0,scattered clouds,0.0,0.0
32,Atuona,PF,2020-01-05 20:54:05,-9.8,-139.03,80.56,67,0,4.74,clear sky,0.0,0.0
33,Cidreira,BR,2020-01-05 20:54:05,-30.17,-50.22,74.61,82,0,19.3,clear sky,0.0,0.0
34,Sao Filipe,CV,2020-01-05 20:55:59,14.9,-24.5,70.7,67,32,16.08,scattered clouds,0.0,0.0
35,Petropavlovsk-Kamchatskiy,RU,2020-01-05 20:55:59,53.05,158.65,24.8,85,100,4.47,light snow,0.0,0.44
36,Bambanglipuro,ID,2020-01-05 20:48:24,-7.95,110.28,74.89,87,15,3.09,light rain,1.44,0.0
37,Cape Town,ZA,2020-01-05 20:53:53,-33.93,18.42,68.0,82,75,9.17,broken clouds,0.0,0.0
38,San Pedro De Macoris,DO,2020-01-05 20:49:07,18.46,-69.3,86.0,62,20,11.41,few clouds,0.0,0.0
39,Flinders,AU,2020-01-05 20:52:28,-34.58,150.85,69.01,100,100,4.7,light rain,0.38,0.0
40,Vaini,IN,2020-01-05 20:54:06,15.34,74.49,66.11,79,0,6.89,clear sky,0.0,0.0
41,Mahebourg,MU,2020-01-05 20:55:59,-20.41,57.7,73.4,100,75,9.17,heavy intensity rain,0.0,0.0
42,Nhulunbuy,AU,2020-01-05 20:48:15,-12.18,136.78,80.6,83,100,13.27,overcast clouds,0.0,0.0
43,Abrau-Dyurso,RU,2020-01-05 20:52:28,44.7,37.6,44.6,93,75,6.71,broken clouds,0.0,0.0
44,Antropovo,RU,2020-01-05 20:52:29,55.25,37.65,33.8,88,75,8.95,broken clouds,0.0,0.0
45,New Norfolk,AU,2020-01-05 20:54:06,-42.78,147.06,60.01,66,40,6.93,scattered clouds,0.0,0.0
46,Mollendo,PE,2020-01-05 20:52:29,-17.03,-72.02,69.82,84,82,8.23,broken clouds,0.0,0.0
47,Atasu,KZ,2020-01-05 20:52:29,48.68,71.64,15.71,74,0,6.62,clear sky,0.0,0.0
48,Narsaq,GL,2020-01-05 20:56:00,60.91,-46.05,15.8,61,20,6.93,few clouds,0.0,0.0
49,Rongcheng,CN,2020-01-05 20:56:00,37.16,122.42,41.32,92,100,13.76,light rain,1.75,0.0
50,Itarema,BR,2020-01-05 20:52:29,-2.92,-39.92,79.92,76,67,8.81,broken clouds,0.0,0.0
51,Ponta Delgada,PT,2020-01-05 20:56:00,37.73,-25.67,64.4,93,40,17.22,scattered clouds,0.0,0.0
52,Coihaique,CL,2020-01-05 20:54:07,-45.58,-72.07,59.0,54,75,8.05,broken clouds,0.0,0.0
53,Provideniya,RU,2020-01-05 20:54:07,64.42,-173.23,-10.43,82,100,9.08,overcast clouds,0.0,0.0
54,Atambua,ID,2020-01-05 20:52:30,-9.11,124.89,75.81,84,100,2.35,overcast clouds,0.0,0.0
55,Burnie,AU,2020-01-05 20:52:30,-41.05,145.91,62.01,66,0,5.99,clear sky,0.0,0.0
56,La Reforma,MX,2020-01-05 20:52:30,25.08,-108.06,82.0,34,5,9.46,clear sky,0.0,0.0
57,Puerto Ayora,EC,2020-01-05 20:54:07,-0.74,-90.35,84.2,66,20,12.75,few clouds,0.0,0.0
58,Kapaa,US,2020-01-05 20:50:27,22.08,-159.32,78.8,74,40,17.22,scattered clouds,0.0,0.0
59,Longyearbyen,NO,2020-01-05 20:56:01,78.22,15.63,-2.2,77,20,4.7,few clouds,0.0,0.0
60,Verkh-Usugli,RU,2020-01-05 20:52:30,52.7,115.17,2.21,90,72,1.74,broken clouds,0.0,0.0
61,Quang Ngai,VN,2020-01-05 20:52:30,15.12,108.8,72.1,78,98,8.5,overcast clouds,0.0,0.0
62,Busselton,AU,2020-01-05 20:54:08,-33.64,115.35,57.99,43,0,9.35,clear sky,0.0,0.0
63,Tasiilaq,GL,2020-01-05 20:54:08,65.61,-37.64,24.06,93,100,30.44,snow,0.0,3.94
64,San Patricio,PY,2020-01-05 20:54:08,-26.98,-56.83,93.25,32,24,2.8,few clouds,0.0,0.0
65,Castro,CL,2020-01-05 20:56:02,-42.48,-73.76,59.0,58,75,12.75,broken clouds,0.0,0.0
66,Muzhi,RU,2020-01-05 20:52:31,65.4,64.7,17.53,72,0,11.9,clear sky,0.0,0.0
67,Fort Nelson,CA,2020-01-05 20:52:31,58.81,-122.69,-7.6,76,90,11.41,light snow,0.0,0.0
68,Bethel,US,2020-01-05 20:54:08,60.79,-161.76,-16.6,74,1,5.82,clear sky,0.0,0.0
69,Hami,CN,2020-01-05 20:54:08,42.84,93.51,18.34,48,73,4.38,broken clouds,0.0,0.0
70,Paamiut,GL,2020-01-05 20:56:03,61.99,-49.67,19.17,93,100,11.92,light snow,0.0,1.31
71,Kieta,PG,2020-01-05 20:54:08,-6.22,155.63,82.26,72,5,3.89,clear sky,0.0,0.0
72,Tiksi,RU,2020-01-05 20:54:09,71.64,128.87,-14.8,86,0,11.92,clear sky,0.0,0.0
73,Mehamn,NO,2020-01-05 20:56:03,71.03,27.85,24.8,85,75,11.41,light shower snow,0.0,0.0
74,Bredasdorp,ZA,2020-01-05 20:54:09,-34.53,20.04,68.0,64,100,5.82,overcast clouds,0.0,0.0
75,Albany,US,2020-01-05 20:51:32,42.65,-73.75,34.0,50,40,19.46,scattered clouds,0.0,0.0
76,Gizo,IL,2020-01-05 20:51:10,31.8,34.94,54.0,66,20,12.75,few clouds,0.0,0.0
77,East London,ZA,2020-01-05 20:50:32,-33.02,27.91,73.44,75,90,4.63,overcast clouds,0.0,0.0
78,Casablanca,MA,2020-01-05 20:52:32,33.6,-7.62,55.0,93,0,3.36,clear sky,0.0,0.0
79,Wanning,AT,2020-01-05 20:52:32,48.64,13.53,34.0,89,90,3.36,overcast clouds,0.0,0.0
80,Dunedin,NZ,2020-01-05 20:56:04,-45.87,170.5,55.99,52,39,25.99,light rain,0.0,0.0
81,Labytnangi,RU,2020-01-05 20:52:33,66.66,66.39,15.33,84,0,17.25,clear sky,0.0,0.0
82,Komsomolskiy,RU,2020-01-05 20:52:33,67.55,63.78,9.59,94,87,15.82,overcast clouds,0.0,0.0
83,Bubaque,GW,2020-01-05 20:54:11,11.28,-15.83,77.5,57,5,18.01,clear sky,0.0,0.0
84,Del Rio,US,2020-01-05 20:52:33,29.36,-100.9,73.4,21,1,4.7,clear sky,0.0,0.0
85,Alofi,NU,2020-01-05 20:56:04,-19.06,-169.92,82.4,78,40,14.99,scattered clouds,0.0,0.0
86,Belaya Gora,RU,2020-01-05 20:48:27,68.54,146.19,-20.47,85,0,1.14,clear sky,0.0,0.0
87,Barrow,AR,2020-01-05 20:55:50,-38.31,-60.23,73.53,76,100,3.74,moderate rain,7.25,0.0
88,Port Blair,IN,2020-01-05 20:56:05,11.67,92.75,80.74,78,0,13.67,clear sky,0.0,0.0
89,Ilulissat,GL,2020-01-05 20:56:05,69.22,-51.1,8.6,65,40,8.05,scattered clouds,0.0,0.0
90,Ostersund,SE,2020-01-05 20:48:18,63.18,14.64,37.0,90,42,10.29,scattered clouds,0.0,0.0
91,Pelham,US,2020-01-05 20:52:34,42.73,-71.32,37.0,51,40,9.17,light rain,0.0,0.0
92,Faanui,PF,2020-01-05 20:54:12,-16.48,-151.75,81.57,75,37,9.42,scattered clouds,0.0,0.0
93,Alibag,IN,2020-01-05 20:52:34,18.64,72.88,77.0,53,0,4.7,smoke,0.0,0.0
94,Carnarvon,ZA,2020-01-05 20:54:12,-30.97,22.13,66.76,29,24,10.56,few clouds,0.0,0.0
95,Hermanus,ZA,2020-01-05 20:54:12,-34.42,19.24,64.0,89,100,11.03,overcast clouds,0.0,0.0
96,Erenhot,CN,2020-01-05 20:52:34,43.65,111.97,14.32,83,20,10.07,few clouds,0.0,0.0
97,Butaritari,KI,2020-01-05 20:54:12,3.07,172.79,85.28,76,100,15.26,moderate rain,3.81,0.0
98,Pangnirtung,CA,2020-01-05 20:56:06,66.15,-65.72,-31.0,43,75,4.7,broken clouds,0.0,0.0
99,Avera,US,2020-01-05 20:54:13,33.19,-82.53,57.2,37,1,8.05,clear sky,0.0,0.0
100,La Ronge,CA,2020-01-05 20:56:06,55.1,-105.3,5.0,65,20,8.05,few clouds,0.0,0.0
101,Laval,CA,2020-01-05 20:52:35,45.58,-73.75,21.99,57,40,16.11,scattered clouds,0.0,0.0
102,Ribeira Grande,PT,2020-01-05 20:54:13,38.52,-28.7,64.4,88,40,13.87,scattered clouds,0.0,0.0
103,Yulara,AU,2020-01-05 20:56:06,-25.24,130.99,62.6,93,90,10.29,overcast clouds,0.0,0.0
104,Georgetown,GY,2020-01-05 20:53:15,6.8,-58.16,86.0,61,20,6.93,few clouds,0.0,0.0
105,Raudeberg,NO,2020-01-05 20:54:13,61.99,5.14,46.99,100,75,16.11,drizzle rain,0.0,0.0
106,Aranos,NA,2020-01-05 20:56:07,-24.14,19.11,86.02,30,88,5.79,light rain,0.44,0.0
107,Aracati,BR,2020-01-05 20:52:35,-4.56,-37.77,79.93,75,3,7.63,clear sky,0.0,0.0
108,Samarai,PG,2020-01-05 20:54:13,-10.62,150.67,79.39,85,100,2.68,overcast clouds,0.0,0.0
109,Ayolas,PY,2020-01-05 20:52:36,-27.39,-56.84,95.38,28,3,5.44,clear sky,0.0,0.0
110,Puerto Del Rosario,ES,2020-01-05 20:52:36,28.5,-13.86,64.4,72,40,12.75,scattered clouds,0.0,0.0
111,Letka,BA,2020-01-05 20:52:36,43.74,17.27,41.0,32,20,19.46,few clouds,0.0,0.0
112,Nikolskoye,RU,2020-01-05 20:54:14,59.7,30.79,24.01,85,81,2.24,broken clouds,0.0,0.0
113,Bilma,NE,2020-01-05 20:48:27,18.69,12.92,54.57,29,93,5.93,overcast clouds,0.0,0.0
114,Kodiak,US,2020-01-05 20:54:14,39.95,-94.76,53.01,37,1,19.46,clear sky,0.0,0.0
115,Biltine,TD,2020-01-05 20:52:37,14.53,20.93,64.15,25,0,9.1,clear sky,0.0,0.0
116,Namatanai,PG,2020-01-05 20:56:07,-3.66,152.44,82.56,76,88,5.79,overcast clouds,0.0,0.0
117,Kerema,PG,2020-01-05 20:52:37,-7.96,145.78,77.27,85,100,3.76,overcast clouds,0.0,0.0
118,Jamestown,AU,2020-01-05 20:54:14,-33.21,138.6,56.25,87,89,5.93,light rain,2.19,0.0
119,Qaanaaq,GL,2020-01-05 20:54:14,77.48,-69.36,-25.65,47,0,4.12,clear sky,0.0,0.0
120,Vostok,RU,2020-01-05 20:56:08,46.45,135.83,-5.44,98,90,3.24,overcast clouds,0.0,0.0
121,Manggar,ID,2020-01-05 20:52:38,-2.88,108.27,81.82,80,100,17.58,overcast clouds,0.0,0.0
122,Pangody,RU,2020-01-05 20:56:08,65.85,74.49,13.28,92,17,13.58,few clouds,0.0,0.0
123,Kloulklubed,PW,2020-01-05 20:56:08,7.04,134.26,78.8,94,90,6.93,light intensity shower rain,0.0,0.0
124,Adwa,ET,2020-01-05 20:52:38,14.16,38.9,61.18,71,1,4.29,clear sky,0.0,0.0
125,Kaoma,ZM,2020-01-05 20:56:08,-14.8,24.8,68.02,94,100,7.63,moderate rain,3.63,0.0
126,Port Macquarie,AU,2020-01-05 20:52:38,-31.43,152.91,72.0,77,90,8.05,overcast clouds,0.0,0.0
127,Lyuban,BY,2020-01-05 20:52:38,52.8,28.0,27.86,83,91,5.75,overcast clouds,0.0,0.0
128,Matamoros,US,2020-01-05 20:51:39,25.87,-97.51,75.99,36,40,9.17,scattered clouds,0.0,0.0
129,Margate,AU,2020-01-05 20:56:09,-43.03,147.26,60.01,66,40,6.93,scattered clouds,0.0,0.0
130,Posevnaya,RU,2020-01-05 20:52:39,54.3,83.33,14.49,94,99,10.04,overcast clouds,0.0,0.0
131,Savinka,RU,2020-01-05 20:52:39,50.08,47.1,31.12,88,100,6.89,overcast clouds,0.0,0.0
132,Clifton Springs,US,2020-01-05 20:52:39,42.96,-77.14,35.01,64,90,4.7,overcast clouds,0.0,0.0
133,Dikson,RU,2020-01-05 20:54:16,73.51,80.55,17.56,91,95,20.65,light snow,0.0,0.19
134,Newport,GB,2020-01-05 20:54:46,51.59,-3.0,46.99,81,90,6.93,overcast clouds,0.0,0.0
135,Saldanha,PT,2020-01-05 20:54:16,41.42,-6.55,38.03,75,7,0.6,clear sky,0.0,0.0
136,Khatanga,RU,2020-01-05 20:54:16,71.98,102.47,-8.95,88,100,6.8,overcast clouds,0.0,0.0
137,Bonthe,SL,2020-01-05 20:52:39,7.53,-12.5,77.38,69,19,7.16,few clouds,0.0,0.0
138,Nadym,RU,2020-01-05 20:56:10,65.53,72.51,12.99,90,0,12.08,clear sky,0.0,0.0
139,Geraldton,CA,2020-01-05 20:54:16,49.72,-86.95,12.2,85,90,10.29,snow,0.0,0.0
140,Antalaha,MG,2020-01-05 20:52:40,-14.9,50.28,77.45,90,100,12.35,moderate rain,4.19,0.0
141,Puerto Ayacucho,CO,2020-01-05 20:52:40,5.66,-67.63,93.2,44,0,13.87,clear sky,0.0,0.0
142,Richards Bay,ZA,2020-01-05 20:56:10,-28.77,32.06,79.36,87,0,21.59,clear sky,0.0,0.0
143,Mataura,NZ,2020-01-05 20:54:16,-46.19,168.86,52.0,78,87,21.0,light rain,1.56,0.0
144,Pangkalanbuun,ID,2020-01-05 20:56:10,-2.68,111.62,74.75,97,100,1.83,overcast clouds,0.0,0.0
145,Plyussa,RU,2020-01-05 20:52:40,58.42,29.37,27.27,79,93,3.83,overcast clouds,0.0,0.0
146,Biedenkopf,DE,2020-01-05 20:52:40,50.92,8.53,41.0,93,75,8.05,light intensity drizzle,0.0,0.0
147,Sitka,US,2020-01-05 20:54:17,37.17,-99.65,52.0,35,2,3.0,clear sky,0.0,0.0
148,Kamenka,MD,2020-01-05 20:55:46,48.03,28.7,34.0,86,99,6.85,light snow,0.0,0.19
149,Nara,JP,2020-01-05 20:54:17,34.68,135.8,44.6,52,0,16.11,clear sky,0.0,0.0
150,Bazarnyye Mataki,RU,2020-01-05 20:52:40,54.9,49.93,19.58,95,78,5.08,broken clouds,0.0,0.0
151,Parabel,RU,2020-01-05 20:51:13,58.71,81.5,12.47,95,96,7.23,overcast clouds,0.0,0.0
152,Bay Roberts,CA,2020-01-05 20:54:17,47.58,-53.28,30.99,92,90,21.92,snow,0.0,0.0
153,Pevek,RU,2020-01-05 20:54:17,69.7,170.27,-6.29,82,0,5.59,clear sky,0.0,0.0
154,Ponta Do Sol,BR,2020-01-05 20:54:18,-20.63,-46.0,75.29,84,20,4.41,light rain,1.94,0.0
155,Raboso,MX,2020-01-05 20:52:41,18.57,-98.45,71.6,15,5,3.36,clear sky,0.0,0.0
156,Dunnville,CA,2020-01-05 20:52:41,42.9,-79.62,37.0,65,75,11.41,broken clouds,0.0,0.0
157,Tura,RU,2020-01-05 20:56:11,64.27,100.22,12.61,87,100,8.97,light snow,0.0,0.25
158,Oriximina,BR,2020-01-05 20:52:41,-1.77,-55.87,89.13,55,4,1.23,clear sky,0.0,0.0
159,Nome,US,2020-01-05 20:56:12,30.04,-94.42,75.2,36,1,11.41,clear sky,0.0,0.0
160,Port Lincoln,AU,2020-01-05 20:56:12,-34.72,135.86,61.3,76,78,10.56,broken clouds,0.0,0.0
161,Iqaluit,CA,2020-01-05 20:56:12,63.75,-68.52,-22.0,67,90,5.82,light snow,0.0,0.0
162,Hobyo,SO,2020-01-05 20:54:18,5.35,48.53,78.58,79,34,12.19,scattered clouds,0.0,0.0
163,Talnakh,RU,2020-01-05 20:56:13,69.49,88.39,23.0,92,75,29.08,shower snow,0.0,0.0
164,Cauquenes,CL,2020-01-05 20:52:42,-35.97,-72.32,64.54,45,0,15.5,clear sky,0.0,0.0
165,Ingham,AU,2020-01-05 20:52:42,-18.65,146.16,73.81,88,17,0.87,few clouds,0.0,0.0
166,Numan,NG,2020-01-05 20:52:42,9.46,12.04,74.05,23,30,4.43,scattered clouds,0.0,0.0
167,Formosa Do Rio Preto,BR,2020-01-05 20:52:42,-11.04,-45.19,70.83,97,95,1.9,overcast clouds,0.0,0.0
168,Barcelona,ES,2020-01-05 20:52:06,41.38,2.18,52.0,81,0,9.17,clear sky,0.0,0.0
169,Podporozhye,RU,2020-01-05 20:52:42,60.91,34.16,15.85,89,0,2.77,clear sky,0.0,0.0
170,Vao,EE,2020-01-05 20:48:27,59.1,26.19,27.45,61,100,8.25,overcast clouds,0.0,0.0
171,Lensk,RU,2020-01-05 20:52:42,60.71,114.91,12.16,92,100,14.16,light snow,0.0,0.69
172,Hasaki,JP,2020-01-05 20:56:14,35.73,140.83,28.4,86,20,3.36,few clouds,0.0,0.0
173,Saint George,GR,2020-01-05 20:54:19,39.45,22.34,42.01,64,90,17.22,overcast clouds,0.0,0.0
174,Saint-Philippe,CA,2020-01-05 20:56:14,45.36,-73.48,21.99,62,75,14.99,broken clouds,0.0,0.0
175,Isangel,VU,2020-01-05 20:54:19,-19.55,169.27,77.0,73,80,9.17,light rain,0.38,0.0
176,Muros,ES,2020-01-05 20:52:43,42.77,-9.06,46.99,100,1,3.36,clear sky,0.0,0.0
177,Kaitangata,NZ,2020-01-05 20:54:20,-46.28,169.85,48.99,75,80,24.0,light rain,1.19,0.0
178,Houma,CN,2020-01-05 20:52:43,35.63,111.36,32.97,95,100,1.21,overcast clouds,0.0,0.0
179,Aden,YE,2020-01-05 20:50:25,12.79,45.03,77.31,74,79,6.17,broken clouds,0.0,0.0
180,Maryborough,AU,2020-01-05 20:52:43,-25.54,152.7,75.29,83,100,3.56,light rain,0.31,0.0
181,Norman Wells,CA,2020-01-05 20:54:20,65.28,-126.83,-31.0,73,20,4.34,few clouds,0.0,0.0
182,Saskylakh,RU,2020-01-05 20:54:20,71.97,114.09,-19.21,94,0,13.09,clear sky,0.0,0.0
183,Curillo,CO,2020-01-05 20:52:44,1.03,-75.92,90.81,49,67,4.07,broken clouds,0.0,0.0
184,Yuanping,CN,2020-01-05 20:52:44,38.72,112.71,18.84,89,4,1.52,clear sky,0.0,0.0
185,Buala,SB,2020-01-05 20:48:10,-8.15,159.59,82.31,81,69,8.99,broken clouds,0.0,0.0
186,Maldonado,UY,2020-01-05 20:52:44,-34.91,-54.96,84.2,39,20,14.99,few clouds,0.0,0.0
187,Kencong,ID,2020-01-05 20:52:44,-7.78,112.24,74.79,91,91,1.68,light rain,2.25,0.0
188,Tilichiki,RU,2020-01-05 20:56:15,60.47,166.1,-11.27,63,0,6.96,clear sky,0.0,0.0
189,Constantine,DZ,2020-01-05 20:52:44,36.36,6.61,44.6,81,75,5.82,broken clouds,0.0,0.0
190,Lagoa,PT,2020-01-05 20:54:21,37.14,-8.45,55.0,76,0,6.93,clear sky,0.0,0.0
191,Belomorsk,RU,2020-01-05 20:52:44,64.52,34.76,18.25,89,37,12.28,scattered clouds,0.0,0.0
192,Karratha,AU,2020-01-05 20:47:58,-20.74,116.85,84.25,69,100,10.11,moderate rain,3.25,0.0
193,Tahe,CN,2020-01-05 20:52:45,52.34,124.71,-3.78,100,97,1.88,overcast clouds,0.0,0.0
194,Faya,SA,2020-01-05 20:56:16,18.39,42.45,59.0,82,20,4.7,few clouds,0.0,0.0
195,Sao Goncalo Do Amarante,BR,2020-01-05 20:52:45,-3.61,-38.97,86.0,70,40,10.29,scattered clouds,0.0,0.0
196,Hilo,US,2020-01-05 20:54:21,19.71,-155.08,78.8,65,90,4.7,overcast clouds,0.0,0.0
197,Chingirlau,KZ,2020-01-05 20:52:45,51.09,54.08,27.54,92,100,10.45,overcast clouds,0.0,0.0
198,Hobart,AU,2020-01-05 20:52:20,-42.88,147.33,60.01,66,40,6.93,scattered clouds,0.0,0.0
199,Balakhninskiy,RU,2020-01-05 20:52:46,58.01,114.28,1.15,91,89,3.42,overcast clouds,0.0,0.0
200,Nabire,ID,2020-01-05 20:56:17,-3.36,135.5,71.8,96,81,1.79,broken clouds,0.0,0.0
201,Kruisfontein,ZA,2020-01-05 20:56:17,-34.0,24.73,65.17,83,100,5.23,light rain,0.19,0.0
202,Danville,US,2020-01-05 20:50:06,37.82,-122.0,60.01,71,1,16.11,clear sky,0.0,0.0
203,Varhaug,NO,2020-01-05 20:52:46,58.61,5.65,46.4,93,90,6.93,light intensity drizzle rain,0.0,0.0
204,Norton,US,2020-01-05 20:48:39,41.97,-71.19,37.99,51,1,12.75,clear sky,0.0,0.0
205,Tarko-Sale,RU,2020-01-05 20:54:22,64.92,77.78,27.0,89,100,1.99,overcast clouds,0.0,0.0
206,Goma,CD,2020-01-05 20:52:46,-1.67,29.23,57.43,97,100,1.86,moderate rain,3.44,0.0
207,Methoni,GR,2020-01-05 20:52:46,36.82,21.7,50.0,78,66,4.7,moderate rain,4.31,0.0
208,Ankara,TR,2020-01-05 20:48:12,39.92,32.85,33.01,86,75,6.93,broken clouds,0.0,0.0
209,Zima,RU,2020-01-05 20:52:47,53.93,102.05,4.75,91,80,4.94,broken clouds,0.0,0.0
210,Labuhan,ID,2020-01-05 20:52:47,-2.54,115.51,72.39,95,100,2.39,moderate rain,3.06,0.0
211,Bud,NO,2020-01-05 20:52:47,62.91,6.91,46.4,100,75,5.82,light intensity shower rain,0.0,0.0
212,Ketchikan,US,2020-01-05 20:56:18,55.34,-131.65,35.6,83,90,5.82,overcast clouds,0.0,0.0
213,Vila Velha,BR,2020-01-05 20:52:47,-3.71,-38.6,86.0,70,40,10.29,scattered clouds,0.0,0.0
214,Zyryanka,RU,2020-01-05 20:48:23,65.73,150.89,-8.52,84,0,3.11,clear sky,0.0,0.0
215,Pitkyaranta,RU,2020-01-05 20:52:47,61.57,31.48,26.15,67,67,7.87,broken clouds,0.0,0.0
216,Aloleng,PH,2020-01-05 20:52:47,16.13,119.78,70.66,70,80,7.81,broken clouds,0.0,0.0
217,Praia,BR,2020-01-05 20:56:18,-20.25,-43.81,80.6,65,72,5.82,light rain,1.25,0.0
218,Leningradskiy,RU,2020-01-05 20:54:24,69.38,178.42,-11.0,51,0,1.83,clear sky,0.0,0.0
219,Lebu,ET,2020-01-05 20:56:18,8.96,38.73,59.0,72,40,5.82,scattered clouds,0.0,0.0
220,The Valley,AI,2020-01-05 20:52:48,18.22,-63.06,84.2,69,40,10.29,scattered clouds,0.0,0.0
221,Osakarovka,KZ,2020-01-05 20:52:48,50.56,72.58,14.05,87,19,4.56,few clouds,0.0,0.0
222,Vanimo,PG,2020-01-05 20:56:19,-2.67,141.3,81.59,84,100,23.76,moderate rain,5.63,0.0
223,Lorengau,PG,2020-01-05 20:48:28,-2.02,147.27,84.42,72,94,9.64,light rain,2.25,0.0
224,Fairbanks,US,2020-01-05 20:53:58,64.84,-147.72,-20.99,66,75,2.08,light snow,0.0,0.0
225,Dedougou,BF,2020-01-05 20:52:48,12.47,-3.47,68.36,14,11,5.66,few clouds,0.0,0.0
226,Petauke,ZM,2020-01-05 20:52:48,-14.25,31.33,64.69,88,100,2.57,overcast clouds,0.0,0.0
227,Chokurdakh,RU,2020-01-05 20:54:24,70.62,147.9,-21.48,99,84,3.83,broken clouds,0.0,0.0
228,Galveston,US,2020-01-05 20:52:48,40.58,-86.19,46.99,58,1,23.04,clear sky,0.0,0.0
229,Yumen,CN,2020-01-05 20:52:49,40.29,97.04,14.43,66,90,4.72,overcast clouds,0.0,0.0
230,Avarua,CK,2020-01-05 20:50:09,-21.21,-159.78,80.6,88,100,8.05,light rain,0.75,0.0
231,Katete,UG,2020-01-05 20:52:49,-0.78,29.75,57.31,94,94,3.36,light rain,0.88,0.0
232,Poum,MK,2020-01-05 20:54:25,41.28,20.71,30.2,50,75,14.99,broken clouds,0.0,0.0
233,Bathsheba,BB,2020-01-05 20:54:25,13.22,-59.52,80.6,74,40,10.29,shower rain,0.0,0.0
234,Plouzane,FR,2020-01-05 20:49:31,48.38,-4.62,44.6,81,90,12.75,overcast clouds,0.0,0.0
235,Gunnedah,AU,2020-01-05 20:52:49,-30.98,150.25,75.2,57,0,14.99,clear sky,0.0,0.0
236,Plettenberg Bay,ZA,2020-01-05 20:54:25,-34.05,23.37,67.8,83,100,3.78,light rain,0.44,0.0
237,Mar Del Plata,AR,2020-01-05 20:54:25,-46.43,-67.52,69.57,33,100,6.33,overcast clouds,0.0,0.0
238,Cherskiy,RU,2020-01-05 20:54:26,68.75,161.3,-7.71,61,5,5.35,clear sky,0.0,0.0
239,Broome,GB,2020-01-05 20:56:21,52.47,1.45,46.4,87,75,11.41,broken clouds,0.0,0.0
240,Vestmanna,FO,2020-01-05 20:52:49,62.16,-7.17,44.6,93,100,8.05,overcast clouds,0.0,0.0
241,Port Hardy,CA,2020-01-05 20:52:50,50.7,-127.42,37.4,86,40,6.93,scattered clouds,0.0,0.0
242,Novopskov,UA,2020-01-05 20:52:50,49.54,39.1,33.03,91,100,4.9,overcast clouds,0.0,0.0
243,Kulhudhuffushi,MV,2020-01-05 20:52:50,6.62,73.07,81.84,80,32,11.72,light rain,0.31,0.0
244,Lavrentiya,RU,2020-01-05 20:54:26,65.58,-170.99,-12.98,87,19,8.32,few clouds,0.0,0.0
245,Te Anau,NZ,2020-01-05 20:54:27,-45.41,167.72,43.75,83,52,16.42,light rain,1.44,0.0
246,Clarence Town,AU,2020-01-05 20:52:50,-32.59,151.78,71.6,78,90,9.17,overcast clouds,0.0,0.0
247,Beyneu,KZ,2020-01-05 20:54:27,45.32,55.19,27.82,75,76,4.76,broken clouds,0.0,0.0
248,Igarka,RU,2020-01-05 20:52:50,67.47,86.57,16.7,93,94,12.55,overcast clouds,0.0,0.0
249,Carutapera,BR,2020-01-05 20:52:51,-1.2,-46.02,81.72,80,100,16.42,light rain,0.25,0.0
250,Cuauhtemoc,MX,2020-01-05 20:52:51,28.72,-111.63,80.01,49,0,8.01,clear sky,0.0,0.0
251,Wanaka,NZ,2020-01-05 20:52:51,-44.7,169.14,55.99,58,99,5.01,light snow,0.0,0.94
252,Mulki,PL,2020-01-05 20:52:51,49.81,20.51,30.99,86,0,6.93,clear sky,0.0,0.0
253,Evensk,RU,2020-01-05 20:54:28,61.92,159.24,-1.3,45,27,4.92,scattered clouds,0.0,0.0
254,Anadyr,RU,2020-01-05 20:52:51,64.73,177.51,-29.2,73,20,4.47,few clouds,0.0,0.0
255,Cayenne,GF,2020-01-05 20:52:51,4.94,-52.33,78.8,88,75,3.36,broken clouds,0.0,0.0
256,Belaya Kholunitsa,RU,2020-01-05 20:52:51,58.84,50.85,21.09,97,91,5.75,overcast clouds,0.0,0.0
257,Lompoc,US,2020-01-05 20:53:02,34.64,-120.46,70.0,52,1,13.87,light rain,0.0,0.0
258,Zlatna,RO,2020-01-05 20:52:51,46.11,23.22,27.0,92,75,8.05,mist,0.0,0.0
259,Quatre Cocos,MU,2020-01-05 20:52:52,-20.21,57.76,73.4,100,75,9.17,heavy intensity rain,0.0,0.0
260,Mbini,GQ,2020-01-05 20:52:52,1.58,9.62,81.66,82,100,8.9,light rain,0.38,0.0
261,Chau Doc,VN,2020-01-05 20:52:52,10.71,105.12,70.34,81,21,2.15,few clouds,0.0,0.0
262,Contai,IN,2020-01-05 20:52:52,21.78,87.75,61.3,54,0,7.9,clear sky,0.0,0.0
263,Lusaka,ZM,2020-01-05 20:52:52,-15.42,28.28,64.49,96,70,4.7,broken clouds,0.0,0.0
264,Yarada,IN,2020-01-05 20:52:52,17.65,83.27,73.4,88,75,2.24,mist,0.0,0.0
265,Baghdad,IQ,2020-01-05 20:52:33,33.3,44.38,48.2,70,5,3.36,clear sky,0.0,0.0
266,Derzhavinsk,KZ,2020-01-05 20:52:52,51.1,66.31,22.06,94,100,4.36,overcast clouds,0.0,0.0
267,Salair,RU,2020-01-05 20:52:52,54.23,85.8,13.08,95,47,7.92,scattered clouds,0.0,0.0
268,Soe,EE,2020-01-05 20:52:52,57.91,26.05,27.0,79,100,8.05,overcast clouds,0.0,0.0
269,Vardo,US,2020-01-05 20:54:29,39.62,-77.74,39.2,69,90,12.75,overcast clouds,0.0,0.0
270,Fortuna,US,2020-01-05 20:54:30,40.6,-124.16,55.4,87,90,4.56,light rain,0.0,0.0
271,Campo Maior,BR,2020-01-05 20:52:53,-4.83,-42.16,78.53,85,100,2.8,moderate rain,6.44,0.0
272,Comodoro Rivadavia,AR,2020-01-05 20:54:30,-45.87,-67.48,73.4,27,40,12.75,scattered clouds,0.0,0.0
273,Kandrian,PG,2020-01-05 20:54:30,-6.21,149.55,76.44,90,94,1.59,overcast clouds,0.0,0.0
274,Doha,QA,2020-01-05 20:56:24,25.29,51.53,62.6,77,100,9.17,overcast clouds,0.0,0.0
275,Bodden Town,KY,2020-01-05 20:51:56,19.28,-81.25,82.4,74,40,11.41,scattered clouds,0.0,0.0
276,Haines Junction,CA,2020-01-05 20:52:53,60.75,-137.51,-11.18,90,1,3.36,clear sky,0.0,0.0
277,Evreux,FR,2020-01-05 20:52:53,49.02,1.15,43.0,93,90,2.24,overcast clouds,0.0,0.0
278,Cabo San Lucas,MX,2020-01-05 20:50:23,22.89,-109.91,81.0,42,75,3.36,broken clouds,0.0,0.0
279,Atbasar,KZ,2020-01-05 20:52:54,51.81,68.36,22.12,96,99,7.61,overcast clouds,0.0,0.0
280,Flin Flon,CA,2020-01-05 20:52:54,54.77,-101.88,8.6,78,90,12.75,light snow,0.0,0.0
281,Port Keats,AU,2020-01-05 20:48:36,-14.25,129.55,80.15,85,99,7.99,overcast clouds,0.0,0.0
282,Kokopo,PG,2020-01-05 20:52:54,-4.34,152.27,82.35,76,81,3.31,broken clouds,0.0,0.0
283,Nioro,GM,2020-01-05 20:52:54,13.79,-15.05,72.45,10,0,9.04,clear sky,0.0,0.0
284,Saint-Tite,CA,2020-01-05 20:52:54,46.73,-72.56,19.4,57,75,11.41,broken clouds,0.0,0.0
285,San Cristobal,HN,2020-01-05 20:54:31,14.68,-86.92,69.13,77,96,10.8,overcast clouds,0.0,0.0
286,Maxixe,MZ,2020-01-05 20:52:54,-23.86,35.35,79.34,80,0,14.29,clear sky,0.0,0.0
287,Esperance,AU,2020-01-05 20:54:31,-33.86,121.89,64.4,59,33,19.46,scattered clouds,0.0,0.0
288,Spas,MK,2020-01-05 20:52:54,41.55,20.48,42.8,30,40,13.87,scattered clouds,0.0,0.0
289,Saint-Augustin,CA,2020-01-05 20:54:22,45.63,-73.98,21.99,57,40,16.11,scattered clouds,0.0,0.0
290,Yabrud,SY,2020-01-05 20:52:55,33.97,36.66,46.4,87,75,19.46,broken clouds,0.0,0.0
291,Tezu,IN,2020-01-05 20:52:55,27.93,96.16,48.65,94,73,2.57,light rain,0.19,0.0
292,San Quintin,PH,2020-01-05 20:52:55,17.54,120.52,67.23,81,39,6.53,scattered clouds,0.0,0.0
293,Nanakuli,US,2020-01-05 20:56:26,21.39,-158.15,78.8,83,75,15.48,light rain,0.0,0.0
294,Maceio,BR,2020-01-05 20:50:52,-9.67,-35.74,80.6,74,100,13.87,overcast clouds,0.0,0.0
295,Sao Joao Da Barra,BR,2020-01-05 20:56:27,-21.64,-41.05,82.4,78,75,9.17,broken clouds,0.0,0.0
296,Magdagachi,RU,2020-01-05 20:52:55,53.45,125.8,-17.52,98,40,2.48,scattered clouds,0.0,0.0
297,Sabha,LY,2020-01-05 20:54:32,27.03,14.43,48.22,29,0,7.85,clear sky,0.0,0.0
298,Kisangani,CD,2020-01-05 20:52:55,0.52,25.21,69.69,97,100,2.28,overcast clouds,0.0,0.0
299,Mildura,AU,2020-01-05 20:52:56,-34.18,142.16,55.4,100,100,9.17,overcast clouds,0.0,0.0
300,Tuatapere,NZ,2020-01-05 20:54:32,-46.13,167.69,52.0,78,100,21.0,light rain,2.13,0.0
301,Khvalynsk,RU,2020-01-05 20:52:56,52.5,48.11,28.9,97,100,5.75,light snow,0.0,0.38
302,Fiumicino,IT,2020-01-05 20:52:56,41.77,12.23,48.99,52,0,3.36,clear sky,0.0,0.0
303,Portland,US,2020-01-05 20:54:33,43.66,-70.25,33.01,63,1,13.87,clear sky,0.0,0.0
304,Marigot,HT,2020-01-05 20:52:56,18.23,-72.32,84.2,62,20,13.87,few clouds,0.0,0.0
305,Horsham,AU,2020-01-05 20:52:56,-36.71,142.2,55.49,65,69,9.48,broken clouds,0.0,0.0
306,Cap-Haitien,HT,2020-01-05 20:52:56,19.76,-72.2,80.6,65,20,9.17,few clouds,0.0,0.0
307,Laguna,BZ,2020-01-05 20:54:33,16.17,-88.94,73.4,73,75,6.93,broken clouds,0.0,0.0
308,Mount Gambier,AU,2020-01-05 20:54:33,-37.83,140.78,46.4,93,9,4.7,clear sky,0.0,0.0
309,Elko,US,2020-01-05 20:52:15,40.83,-115.76,37.0,69,90,16.11,overcast clouds,0.0,0.0
310,Puro,PH,2020-01-05 20:52:57,13.13,123.76,76.37,88,98,17.52,light rain,2.88,0.0
311,Belmonte,PT,2020-01-05 20:54:33,40.36,-7.35,42.01,10,0,2.13,clear sky,0.0,0.0
312,Kendari,ID,2020-01-05 20:48:34,-3.99,122.52,75.06,93,100,0.87,light rain,1.56,0.0
313,Elk City,US,2020-01-05 20:52:57,35.41,-99.4,57.2,33,1,18.34,clear sky,0.0,0.0
314,Upernavik,GL,2020-01-05 20:54:34,72.79,-56.15,-29.87,88,100,11.86,overcast clouds,0.0,0.0
315,Emba,CY,2020-01-05 20:52:57,34.81,32.42,53.6,81,75,3.36,broken clouds,0.0,0.0
316,Kontagora,NG,2020-01-05 20:52:57,10.4,5.47,74.66,29,100,5.06,overcast clouds,0.0,0.0
317,Tecoanapa,MX,2020-01-05 20:52:57,16.99,-99.26,86.0,66,20,5.82,few clouds,0.0,0.0
318,Pyaozerskiy,RU,2020-01-05 20:52:57,65.83,31.17,15.89,90,100,10.89,overcast clouds,0.0,0.0
319,Deputatskiy,RU,2020-01-05 20:54:34,69.3,139.9,-17.63,82,34,0.54,scattered clouds,0.0,0.0
320,Polessk,RU,2020-01-05 20:52:58,54.86,21.11,33.8,80,100,8.95,overcast clouds,0.0,0.0
321,Innisfail,AU,2020-01-05 20:52:58,-17.52,146.03,69.01,98,12,1.01,light rain,0.25,0.0
322,Changde,CN,2020-01-05 20:52:58,29.04,111.68,45.84,87,100,4.18,overcast clouds,0.0,0.0
323,Denpasar,ID,2020-01-05 20:52:58,-8.65,115.22,82.4,83,75,5.61,broken clouds,0.0,0.0
324,Abonnema,NG,2020-01-05 20:52:58,4.71,6.79,77.0,73,98,9.48,dust,0.0,0.0
325,Rincon,PA,2020-01-05 20:54:35,8.46,-82.28,93.2,32,86,23.04,overcast clouds,0.0,0.0
326,Nanortalik,GL,2020-01-05 20:54:35,60.14,-45.24,26.4,70,0,11.77,clear sky,0.0,0.0
327,Ostrovnoy,RU,2020-01-05 20:54:35,68.05,39.51,14.47,92,68,20.92,broken clouds,0.0,0.0
328,Mayumba,GA,2020-01-05 20:54:35,-3.44,10.65,81.79,84,99,1.25,overcast clouds,0.0,0.0
329,Kano,NG,2020-01-05 20:52:59,11.99,8.53,64.4,55,90,3.36,dust,0.0,0.0
330,Batticaloa,LK,2020-01-05 20:52:59,7.71,81.69,72.72,93,9,0.65,clear sky,0.0,0.0
331,Swellendam,ZA,2020-01-05 20:53:49,-34.02,20.44,68.0,64,100,5.82,overcast clouds,0.0,0.0
332,Crestline,US,2020-01-05 20:52:59,40.79,-82.74,39.0,69,1,9.17,clear sky,0.0,0.0
333,Susuman,RU,2020-01-05 20:52:59,62.78,148.15,-14.42,100,97,1.77,overcast clouds,0.0,0.0
334,Kavaratti,IN,2020-01-05 20:53:40,10.57,72.64,79.97,63,0,3.85,clear sky,0.0,0.0
335,Hefei,CN,2020-01-05 20:49:01,31.82,117.22,48.2,100,90,6.71,light rain,0.0,0.0
336,Pundaguitan,PH,2020-01-05 20:52:59,6.37,126.17,78.33,82,39,8.97,scattered clouds,0.0,0.0
337,Mizdah,LY,2020-01-05 20:52:59,31.45,12.98,47.39,75,31,14.2,scattered clouds,0.0,0.0
338,Dudinka,RU,2020-01-05 20:54:36,69.41,86.18,23.0,92,75,29.08,shower snow,0.0,0.0
339,Sena Madureira,BR,2020-01-05 20:53:00,-9.07,-68.66,82.99,86,100,1.43,moderate rain,3.31,0.0
340,Kamaishi,JP,2020-01-05 20:53:00,39.28,141.86,26.8,73,0,3.62,clear sky,0.0,0.0
341,Sao Jose Da Coroa Grande,BR,2020-01-05 20:53:00,-8.9,-35.15,80.53,73,100,11.92,overcast clouds,0.0,0.0
342,Emerald,AU,2020-01-05 20:53:00,-23.53,148.16,75.2,73,0,4.7,clear sky,0.0,0.0
343,Codrington,AU,2020-01-05 20:54:37,-28.95,153.24,73.99,88,75,1.32,broken clouds,0.0,0.0
344,Ust-Kut,RU,2020-01-05 20:53:00,56.78,105.75,3.4,95,11,5.64,few clouds,0.0,0.0
345,Baturaja,ID,2020-01-05 20:53:01,-4.12,104.17,72.95,95,66,3.76,broken clouds,0.0,0.0
346,Marovoay,MG,2020-01-05 20:53:01,-16.11,46.64,78.8,88,20,4.7,few clouds,0.0,0.0
347,Nantucket,US,2020-01-05 20:49:38,41.28,-70.1,37.99,59,90,23.04,overcast clouds,0.0,0.0
348,Marabba,SD,2020-01-05 20:53:01,12.35,32.18,66.02,15,0,12.82,clear sky,0.0,0.0
349,Pisco,PE,2020-01-05 20:54:37,-13.71,-76.2,73.0,30,69,21.92,broken clouds,0.0,0.0
350,Nyurba,RU,2020-01-05 20:54:37,63.29,118.35,-5.06,99,95,2.13,light snow,0.0,0.13
351,Longyan,CN,2020-01-05 20:53:01,25.1,117.03,53.55,94,55,1.21,broken clouds,0.0,0.0
352,Los Llanos De Aridane,ES,2020-01-05 20:54:37,28.66,-17.92,64.4,63,20,8.05,few clouds,0.0,0.0
353,Patan,NP,2020-01-05 20:53:01,27.67,85.33,39.2,93,20,3.36,few clouds,0.0,0.0
354,Chabahar,IR,2020-01-05 20:53:02,25.29,60.65,72.01,78,100,12.82,light rain,0.19,0.0
355,Vaitape,PF,2020-01-05 20:53:02,-16.52,-151.75,81.57,75,37,9.42,scattered clouds,0.0,0.0
356,Ormara,PK,2020-01-05 20:53:02,25.21,64.64,72.48,71,33,7.0,scattered clouds,0.0,0.0
357,Pochutla,MX,2020-01-05 20:53:02,15.74,-96.47,89.6,46,20,6.93,few clouds,0.0,0.0
358,Hailey,US,2020-01-05 20:49:41,43.52,-114.32,27.0,63,90,6.93,overcast clouds,0.0,0.0
359,Grand Gaube,MU,2020-01-05 20:48:17,-20.01,57.66,73.4,100,75,9.17,very heavy rain,0.0,0.0
360,Beipiao,CN,2020-01-05 20:56:33,41.8,120.76,21.92,92,100,5.46,overcast clouds,0.0,0.0
361,Chapais,CA,2020-01-05 20:53:02,49.78,-74.86,8.6,78,90,5.82,light snow,0.0,0.0
362,Guaraniacu,BR,2020-01-05 20:53:02,-25.1,-52.88,78.8,57,40,6.93,shower rain,0.0,0.0
363,Iwanai,JP,2020-01-05 20:53:02,42.97,140.51,25.95,72,100,10.18,light snow,0.0,0.19
364,Sao Felix Do Xingu,BR,2020-01-05 20:53:02,-6.64,-51.99,78.26,94,80,2.66,moderate rain,4.56,0.0
365,Svetlogorsk,RU,2020-01-05 20:53:03,53.14,59.15,28.4,86,90,8.95,overcast clouds,0.0,0.0
366,Kysyl-Syr,RU,2020-01-05 20:53:03,63.9,122.77,-15.34,98,99,6.62,overcast clouds,0.0,0.0
367,Igrim,RU,2020-01-05 20:53:03,63.19,64.42,18.66,92,80,7.38,broken clouds,0.0,0.0
368,Klaksvik,FO,2020-01-05 20:54:40,62.23,-6.59,44.6,93,100,8.05,overcast clouds,0.0,0.0
369,Coracora,PE,2020-01-05 20:53:03,-15.02,-73.78,50.67,76,97,12.95,light rain,0.63,0.0
370,Thinadhoo,MV,2020-01-05 20:53:03,0.53,72.93,81.39,77,98,3.31,light rain,1.19,0.0
371,Mayo,CA,2020-01-05 20:54:40,63.59,-135.9,-23.8,74,75,2.24,light snow,0.0,0.0
372,Axim,GH,2020-01-05 20:53:03,4.87,-2.24,75.34,52,0,2.44,clear sky,0.0,0.0
373,Maningrida,AU,2020-01-05 20:53:04,-12.05,134.23,78.26,88,100,4.23,overcast clouds,0.0,0.0
374,Beberibe,BR,2020-01-05 20:53:04,-4.18,-38.13,86.0,70,40,10.29,scattered clouds,0.0,0.0
375,Cockburn Town,TC,2020-01-05 20:54:41,21.46,-71.14,82.4,65,40,4.7,scattered clouds,0.0,0.0
376,Chimore,BO,2020-01-05 20:53:04,-16.98,-65.13,85.33,67,100,1.86,overcast clouds,0.0,0.0
377,Arraial Do Cabo,BR,2020-01-05 20:54:41,-22.97,-42.02,80.6,83,75,11.41,broken clouds,0.0,0.0
378,Rawson,AR,2020-01-05 20:53:04,-43.3,-65.11,64.76,60,42,22.15,scattered clouds,0.0,0.0
379,Camocim,BR,2020-01-05 20:53:04,-2.9,-40.84,78.69,84,100,6.04,light rain,0.5,0.0
380,Parana,BR,2020-01-05 20:53:04,-7.52,-72.89,89.6,59,75,8.05,broken clouds,0.0,0.0
381,San Andres,PH,2020-01-05 20:53:04,13.32,122.68,73.94,89,89,12.73,light rain,0.25,0.0
382,Bontang,ID,2020-01-05 20:54:41,0.12,117.47,75.11,89,100,3.22,light rain,1.88,0.0
383,Hachinohe,JP,2020-01-05 20:53:05,40.47,141.48,34.0,76,75,10.29,broken clouds,0.0,0.0
384,Kattivakkam,IN,2020-01-05 20:53:05,13.22,80.32,77.0,94,40,10.54,mist,0.0,0.0
385,Varkaus,FI,2020-01-05 20:53:05,62.32,27.87,19.4,79,100,9.17,overcast clouds,0.0,0.0
386,Grande Prairie,CA,2020-01-05 20:53:05,55.17,-118.79,14.0,85,75,4.7,broken clouds,0.0,0.0
387,Langenburg,CA,2020-01-05 20:53:05,50.84,-101.7,19.92,88,0,7.58,clear sky,0.0,0.0
388,Senges,BR,2020-01-05 20:50:36,-24.11,-49.46,78.01,81,11,3.0,light rain,0.44,0.0
389,Sompeta,IN,2020-01-05 20:53:05,18.93,84.6,64.0,86,0,3.6,clear sky,0.0,0.0
390,Saquena,PE,2020-01-05 20:54:42,-4.67,-73.52,91.83,42,79,4.52,broken clouds,0.0,0.0
391,Saint Anthony,US,2020-01-05 20:53:06,43.97,-111.68,26.6,85,90,6.93,light rain,0.0,0.0
392,Adrar,DZ,2020-01-05 20:48:51,27.87,-0.29,50.0,16,0,9.17,clear sky,0.0,0.0
393,Honiara,SB,2020-01-05 20:53:06,-9.43,159.96,77.0,94,20,2.24,few clouds,0.0,0.0
394,Isiro,CD,2020-01-05 20:53:06,2.77,27.62,70.05,78,90,3.36,overcast clouds,0.0,0.0
395,Benghazi,LY,2020-01-05 20:53:06,32.12,20.07,60.06,69,45,24.54,light rain,0.81,0.0
396,Guiyang,CN,2020-01-05 20:53:07,26.58,106.71,57.2,93,90,4.47,overcast clouds,0.0,0.0
397,Ashqelon,IL,2020-01-05 20:53:07,31.67,34.57,54.0,66,20,12.75,few clouds,0.0,0.0
398,Kaeo,NZ,2020-01-05 20:54:43,-35.1,173.78,68.0,100,100,4.0,light rain,0.19,0.0
399,Mayya,RU,2020-01-05 20:53:07,61.74,130.28,-22.0,67,100,2.24,light snow,0.0,0.0
400,Ahipara,NZ,2020-01-05 20:54:43,-35.17,173.16,64.99,100,100,4.0,light rain,0.63,0.0
401,Masallatah,LY,2020-01-05 20:53:07,32.62,14.0,53.69,79,37,21.77,light rain,0.38,0.0
402,Touros,BR,2020-01-05 20:53:05,-5.2,-35.46,84.2,66,40,17.22,scattered clouds,0.0,0.0
403,Muisne,EC,2020-01-05 20:53:07,0.61,-80.02,80.6,83,75,9.17,broken clouds,0.0,0.0
404,Peniche,PT,2020-01-05 20:53:07,39.36,-9.38,52.0,87,0,10.31,clear sky,0.0,0.0
405,Westport,US,2020-01-05 20:52:40,41.14,-73.36,42.8,38,40,23.04,scattered clouds,0.0,0.0
406,Abu Samrah,SY,2020-01-05 20:53:07,35.3,37.18,44.17,82,21,8.5,few clouds,0.0,0.0
407,Ilhabela,BR,2020-01-05 20:49:23,-23.78,-45.36,76.41,83,68,4.45,broken clouds,0.0,0.0
408,Airai,TL,2020-01-05 20:54:44,-8.93,125.41,69.42,84,100,5.26,overcast clouds,0.0,0.0
409,Ulaangom,MN,2020-01-05 20:53:08,49.98,92.07,-15.0,84,0,2.08,clear sky,0.0,0.0
410,Vagur,FO,2020-01-05 20:53:08,61.47,-6.81,46.53,97,100,19.93,light rain,0.44,0.0
411,Cocorit,MX,2020-01-05 20:53:08,27.57,-109.96,77.0,22,5,6.93,clear sky,0.0,0.0
412,Kudahuvadhoo,MV,2020-01-05 20:53:08,2.67,72.89,82.2,79,96,13.8,overcast clouds,0.0,0.0
413,Salo,FI,2020-01-05 20:53:08,60.38,23.13,33.01,96,90,13.87,light snow,0.0,0.0
414,Adelaide,AU,2020-01-05 20:50:05,-34.93,138.6,61.0,62,3,6.93,clear sky,0.0,0.0
415,Terrenate,MX,2020-01-05 20:53:09,28.79,-111.4,81.0,23,5,3.36,clear sky,0.0,0.0
416,Murgab,TM,2020-01-05 20:53:09,37.5,61.97,37.4,93,90,11.41,mist,0.0,0.0
417,Ambilobe,MG,2020-01-05 20:54:45,-13.19,49.05,78.42,86,100,1.59,overcast clouds,0.0,0.0
418,Acapulco,MX,2020-01-05 20:53:09,16.86,-99.88,86.0,66,20,5.82,few clouds,0.0,0.0
419,Padang,ID,2020-01-05 20:54:45,-0.92,100.36,68.95,85,13,6.17,few clouds,0.0,0.0
420,Severo-Kurilsk,RU,2020-01-05 20:54:45,50.68,156.12,19.35,93,100,14.85,snow,0.0,7.06
421,Bulgan,MN,2020-01-05 20:53:09,48.81,103.53,1.99,74,0,2.91,clear sky,0.0,0.0
422,North Bend,US,2020-01-05 20:49:29,43.41,-124.22,53.01,62,75,8.05,broken clouds,0.0,0.0
423,Trinidad,BO,2020-01-05 20:53:09,-14.83,-64.9,86.0,74,75,9.17,shower rain,0.0,0.0
424,Fukuma,JP,2020-01-05 20:53:10,33.77,130.47,46.99,75,55,2.24,broken clouds,0.0,0.0
425,Aginskoye,RU,2020-01-05 20:53:10,51.11,114.54,8.6,89,100,5.93,overcast clouds,0.0,0.0
426,Karpogory,RU,2020-01-05 20:53:10,64.0,44.44,12.42,94,64,8.34,broken clouds,0.0,0.0
427,Hambantota,LK,2020-01-05 20:56:41,6.12,81.12,79.54,80,13,20.83,few clouds,0.0,0.0
428,Kidal,ML,2020-01-05 20:48:47,18.44,1.41,57.9,21,0,10.63,clear sky,0.0,0.0
429,Cuilco,GT,2020-01-05 20:53:10,15.41,-91.95,64.13,62,0,6.17,clear sky,0.0,0.0
430,Hamilton,CA,2020-01-05 20:53:08,43.26,-79.87,37.0,80,75,11.41,broken clouds,0.0,0.0
431,Salamanca,MX,2020-01-05 20:53:10,20.57,-101.19,71.6,7,40,9.17,scattered clouds,0.0,0.0
432,Kavieng,PG,2020-01-05 20:54:46,-2.57,150.8,84.27,73,56,7.54,light rain,2.0,0.0
433,Barcelos,BR,2020-01-05 20:53:11,-0.97,-62.93,90.72,53,76,2.73,broken clouds,0.0,0.0
434,Princeton,US,2020-01-05 20:53:11,40.35,-74.66,43.0,48,90,12.75,overcast clouds,0.0,0.0
435,Takoradi,GH,2020-01-05 20:48:28,4.89,-1.75,79.75,58,5,6.42,clear sky,0.0,0.0
436,Torbay,CA,2020-01-05 20:54:46,47.66,-52.73,30.99,92,90,21.92,snow,0.0,0.0
437,Hay River,CA,2020-01-05 20:54:46,60.82,-115.79,-18.4,75,75,5.82,broken clouds,0.0,0.0
438,Halifax,CA,2020-01-05 20:52:03,44.65,-63.58,30.0,100,90,21.92,light snow,0.0,0.0
439,Rafael Lucio,MX,2020-01-05 20:53:11,19.59,-96.99,50.95,85,99,4.56,overcast clouds,0.0,0.0
440,Daru,PG,2020-01-05 20:54:46,-9.07,143.21,75.87,92,100,6.89,light rain,0.31,0.0
441,Medyn,RU,2020-01-05 20:53:11,54.97,35.86,30.2,68,40,4.47,scattered clouds,0.0,0.0
442,Mackay,CA,2020-01-05 20:53:11,53.65,-115.58,26.6,49,90,6.93,overcast clouds,0.0,0.0
443,Bhadra,IN,2020-01-05 20:53:11,29.1,75.17,59.83,48,100,10.8,overcast clouds,0.0,0.0
444,Tiznit,MA,2020-01-05 20:54:47,29.7,-9.73,52.34,73,0,1.23,clear sky,0.0,0.0
445,Novoorsk,RU,2020-01-05 20:53:12,51.38,58.98,26.6,86,90,11.18,overcast clouds,0.0,0.0
446,Jalu,LY,2020-01-05 20:53:12,29.03,21.55,50.79,48,0,12.62,clear sky,0.0,0.0
447,Chuy,UY,2020-01-05 20:53:12,-33.69,-53.46,75.31,63,0,13.76,clear sky,0.0,0.0
448,Samagaltay,RU,2020-01-05 20:53:12,50.6,95.0,-14.39,98,19,1.43,few clouds,0.0,0.0
449,Tucurui,BR,2020-01-05 20:53:12,-3.77,-49.67,79.12,89,100,4.63,moderate rain,5.63,0.0
450,Serenje,ZM,2020-01-05 20:53:12,-13.23,30.22,63.99,96,100,2.01,overcast clouds,0.0,0.0
451,El Alto,BO,2020-01-05 20:53:12,-16.5,-68.19,55.4,62,75,13.87,thunderstorm,0.0,0.0
452,Grand-Lahou,CI,2020-01-05 20:53:12,5.24,-5.0,81.23,58,0,12.55,clear sky,0.0,0.0
453,Singaraja,ID,2020-01-05 20:53:13,-8.11,115.08,81.9,79,63,7.92,light rain,0.56,0.0
454,Ambon,FR,2020-01-05 20:53:13,47.55,-2.56,44.01,93,0,4.7,clear sky,0.0,0.0
455,Port-Cartier,CA,2020-01-05 20:53:13,50.03,-66.88,17.6,57,75,12.75,broken clouds,0.0,0.0
456,Cap-Aux-Meules,CA,2020-01-05 20:53:13,47.38,-61.86,30.2,80,90,29.97,light shower snow,0.0,0.0
457,Berlevag,NO,2020-01-05 20:53:13,70.86,29.09,24.8,85,75,11.41,light shower snow,0.0,0.0
458,Castelo Do Piaui,BR,2020-01-05 20:53:13,-5.32,-41.55,76.78,87,100,2.53,moderate rain,3.81,0.0
459,Kamiiso,JP,2020-01-05 20:53:13,41.82,140.65,20.75,88,23,8.08,few clouds,0.0,0.0
460,Sampit,ID,2020-01-05 20:53:13,-2.54,112.95,74.26,96,97,2.39,overcast clouds,0.0,0.0
461,Manokwari,ID,2020-01-05 20:53:13,-0.87,134.08,74.62,76,82,3.29,broken clouds,0.0,0.0
462,Sechura,PE,2020-01-05 20:53:14,-5.56,-80.82,71.02,89,31,17.43,scattered clouds,0.0,0.0
463,Hare Bay,CA,2020-01-05 20:53:14,48.86,-53.99,24.8,92,90,12.75,light snow,0.0,0.0
464,Popondetta,PG,2020-01-05 20:53:14,-8.77,148.24,67.39,92,100,3.89,moderate rain,4.63,0.0
465,Xai-Xai,MZ,2020-01-05 20:53:14,-25.04,33.64,76.46,72,54,9.04,broken clouds,0.0,0.0
466,Sande,NO,2020-01-05 20:53:14,59.59,10.21,42.01,93,98,11.41,overcast clouds,0.0,0.0
467,Praya,ID,2020-01-05 20:54:49,-8.71,116.27,78.8,83,40,2.24,scattered clouds,0.0,0.0
468,Przhevalskoye,RU,2020-01-05 20:53:14,55.51,31.85,27.5,88,71,6.78,broken clouds,0.0,0.0
469,Imeni Babushkina,RU,2020-01-05 20:53:14,59.76,43.13,20.19,94,97,5.19,overcast clouds,0.0,0.0
470,Hemnesberget,NO,2020-01-05 20:53:14,66.23,13.61,41.0,100,75,5.82,light shower snow,0.0,0.0
471,San Ramon,NI,2020-01-05 20:53:15,12.92,-85.84,77.0,53,20,23.04,few clouds,0.0,0.0
472,Adeje,NG,2020-01-05 20:53:15,5.68,5.76,77.67,58,94,4.29,overcast clouds,0.0,0.0
473,Mul,IN,2020-01-05 20:53:15,20.07,79.68,58.42,66,0,3.78,clear sky,0.0,0.0
474,Udon Thani,TH,2020-01-05 20:53:15,17.4,102.79,66.33,77,0,4.25,clear sky,0.0,0.0
475,Hoa Binh,VN,2020-01-05 20:54:51,20.81,105.34,68.0,88,40,5.82,mist,0.0,0.0
476,Ullapool,GB,2020-01-05 20:53:15,57.9,-5.16,53.01,84,100,8.99,light rain,0.75,0.0
477,Qaqortoq,GL,2020-01-05 20:54:51,60.72,-46.03,15.8,61,20,6.93,few clouds,0.0,0.0
478,Agadez,NE,2020-01-05 20:53:15,16.97,7.99,62.6,23,1,15.19,clear sky,0.0,0.0
479,Sept-Iles,CA,2020-01-05 20:51:26,50.2,-66.38,17.6,57,75,12.75,broken clouds,0.0,0.0
480,Voh,NC,2020-01-05 20:54:51,-20.95,164.69,76.96,73,1,7.29,clear sky,0.0,0.0
481,Kutum,SD,2020-01-05 20:54:52,14.2,24.66,55.96,26,0,6.17,clear sky,0.0,0.0
482,Phuket,TH,2020-01-05 20:49:53,7.89,98.4,73.4,88,20,1.12,few clouds,0.0,0.0
483,Clyde,NZ,2020-01-05 20:53:16,-45.19,169.32,55.99,52,71,8.01,light rain,0.5,0.0
484,Capoterra,IT,2020-01-05 20:53:16,39.18,8.97,53.6,93,3,5.82,clear sky,0.0,0.0
485,Iranshahr,IR,2020-01-05 20:53:16,27.21,60.69,62.6,77,100,11.41,overcast clouds,0.0,0.0
486,Prescott,US,2020-01-05 20:53:16,34.54,-112.47,63.0,28,1,5.82,clear sky,0.0,0.0
487,Yamada,JP,2020-01-05 20:53:16,36.58,137.08,34.0,79,20,4.7,few clouds,0.0,0.0
488,Sur,OM,2020-01-05 20:53:16,22.57,59.53,69.24,74,33,13.53,scattered clouds,0.0,0.0
489,Wukari,NG,2020-01-05 20:53:17,7.87,9.78,75.96,21,63,4.07,broken clouds,0.0,0.0
490,Montoro,ES,2020-01-05 20:53:17,38.02,-4.38,45.0,93,0,2.24,clear sky,0.0,0.0
491,Arys,KZ,2020-01-05 20:53:17,42.43,68.8,28.4,100,90,2.24,fog,0.0,0.0
492,Gazli,UZ,2020-01-05 20:53:17,40.13,63.45,35.87,68,100,5.28,overcast clouds,0.0,0.0
493,Cervo,BR,2020-01-05 20:54:53,-22.19,-46.24,78.8,74,20,2.51,few clouds,0.0,0.0
494,Ipameri,BR,2020-01-05 20:53:17,-17.72,-48.16,73.4,91,30,5.44,light rain,2.88,0.0
495,Udachnyy,RU,2020-01-05 20:53:17,66.42,112.4,-13.0,83,67,6.71,broken clouds,0.0,0.0
496,Althofen,AT,2020-01-05 20:53:17,46.87,14.47,30.0,68,0,4.7,clear sky,0.0,0.0
497,Sioux Lookout,CA,2020-01-05 20:53:18,50.1,-91.92,24.8,92,90,10.29,light snow,0.0,0.0
498,Imeni Poliny Osipenko,RU,2020-01-05 20:53:18,52.42,136.49,-13.16,89,0,2.37,clear sky,0.0,0.0
499,Alexandria,RO,2020-01-05 20:53:18,43.97,25.33,30.99,86,66,4.97,broken clouds,0.0,0.0
500,Yerbogachen,RU,2020-01-05 20:54:54,61.28,108.01,5.65,92,100,10.6,overcast clouds,0.0,0.0
501,Zhigansk,RU,2020-01-05 20:48:46,66.77,123.37,-10.32,94,100,15.64,overcast clouds,0.0,0.0
502,Jalingo,NG,2020-01-05 20:53:18,10.3,10.93,69.66,29,61,8.9,broken clouds,0.0,0.0
503,Sorland,NO,2020-01-05 20:54:54,67.67,12.69,42.8,87,40,13.87,scattered clouds,0.0,0.0
504,Stromness,CA,2020-01-05 20:53:18,42.87,-79.55,37.0,65,75,11.41,broken clouds,0.0,0.0
505,Fukue,JP,2020-01-05 20:53:18,35.03,136.69,44.6,56,20,20.8,few clouds,0.0,0.0
506,Grand-Santi,GF,2020-01-05 20:53:18,4.27,-54.38,80.94,73,41,5.06,light rain,0.19,0.0
507,Orje,NO,2020-01-05 20:53:18,59.48,11.66,41.0,93,99,11.41,overcast clouds,0.0,0.0
508,Sangar,RU,2020-01-05 20:53:19,63.92,127.47,-7.46,90,100,11.95,overcast clouds,0.0,0.0
509,Ust-Omchug,RU,2020-01-05 20:48:34,61.13,149.63,-12.21,100,98,2.04,overcast clouds,0.0,0.0
510,Tucuman,PE,2020-01-05 20:53:19,-17.17,-70.89,63.12,50,96,12.37,light rain,0.94,0.0
511,Bad Freienwalde,DE,2020-01-05 20:53:19,52.79,14.03,37.99,88,75,4.7,light rain,0.0,0.0
512,Tekkali,IN,2020-01-05 20:53:19,18.62,84.23,66.38,83,1,4.76,clear sky,0.0,0.0
513,Hohhot,CN,2020-01-05 20:53:19,40.81,111.65,26.6,73,75,8.95,broken clouds,0.0,0.0
514,Anloga,GH,2020-01-05 20:53:19,5.79,0.9,80.6,54,91,2.24,haze,0.0,0.0
515,Tazovskiy,RU,2020-01-05 20:54:56,67.47,78.7,14.52,91,17,16.73,few clouds,0.0,0.0
516,Amahai,ID,2020-01-05 20:53:20,-3.31,129.0,82.99,86,100,1.01,overcast clouds,0.0,0.0
517,Praia Da Vitoria,PT,2020-01-05 20:54:56,38.73,-27.07,64.4,88,40,23.11,scattered clouds,0.0,0.0
518,Manacapuru,BR,2020-01-05 20:53:20,-3.3,-60.62,93.2,44,40,8.05,scattered clouds,0.0,0.0
519,Omboue,GA,2020-01-05 20:54:56,-1.57,9.26,77.52,87,100,2.04,overcast clouds,0.0,0.0
520,Cardoso,BR,2020-01-05 20:53:20,-20.08,-49.91,80.15,79,79,5.23,light rain,1.94,0.0
521,Chimoio,MZ,2020-01-05 20:53:20,-19.11,33.48,77.0,83,20,1.9,few clouds,0.0,0.0
522,Causapscal,CA,2020-01-05 20:53:20,48.35,-67.23,19.0,76,100,9.62,overcast clouds,0.0,0.0
523,Suntar,RU,2020-01-05 20:54:57,62.16,117.65,15.67,93,100,8.63,light snow,0.0,0.38
524,Dibulla,CO,2020-01-05 20:53:20,11.27,-73.31,86.0,66,20,12.75,few clouds,0.0,0.0
525,Ranapur,IN,2020-01-05 20:53:20,22.65,74.53,55.9,48,0,6.67,clear sky,0.0,0.0
526,Abha,SA,2020-01-05 20:53:21,18.22,42.5,59.0,82,20,4.7,few clouds,0.0,0.0
527,Sisimiut,GL,2020-01-05 20:53:21,66.94,-53.67,-1.3,96,100,6.71,light snow,0.0,0.56
528,Pichayevo,RU,2020-01-05 20:53:21,51.79,41.22,25.75,93,98,4.76,overcast clouds,0.0,0.0
529,Qasigiannguit,GL,2020-01-05 20:53:21,68.82,-51.19,8.6,65,40,8.05,scattered clouds,0.0,0.0
530,Rangpur,BD,2020-01-05 20:53:21,25.76,89.24,56.97,63,0,7.0,clear sky,0.0,0.0
531,Kungurtug,RU,2020-01-05 20:53:21,50.6,97.53,-5.15,83,0,2.39,clear sky,0.0,0.0
532,Russell,US,2020-01-05 20:53:21,38.9,-98.86,50.0,31,1,17.22,clear sky,0.0,0.0
533,Pindobacu,BR,2020-01-05 20:53:21,-10.74,-40.36,70.65,85,100,2.68,overcast clouds,0.0,0.0
534,Inhambane,MZ,2020-01-05 20:53:22,-23.87,35.38,79.34,80,0,14.29,clear sky,0.0,0.0
535,Makhinjauri,GE,2020-01-05 20:53:22,41.67,41.69,42.8,75,10,14.99,clear sky,0.0,0.0
536,Alta Floresta,BR,2020-01-05 20:48:51,-9.87,-56.08,84.2,70,20,10.29,few clouds,0.0,0.0
537,Puerto Escondido,MX,2020-01-05 20:53:22,15.86,-97.07,86.0,58,5,11.41,clear sky,0.0,0.0
538,Yar-Sale,RU,2020-01-05 20:54:58,66.83,70.83,15.31,84,0,17.47,clear sky,0.0,0.0
539,Paragominas,BR,2020-01-05 20:53:22,-3.0,-47.35,75.9,93,69,4.52,moderate rain,4.31,0.0
540,Kropotkin,RU,2020-01-05 20:53:22,45.43,40.58,39.0,60,100,4.16,overcast clouds,0.0,0.0
541,Yavaros,MX,2020-01-05 20:53:22,26.7,-109.52,79.0,35,67,4.0,broken clouds,0.0,0.0
542,Aquiraz,BR,2020-01-05 20:53:22,-3.9,-38.39,86.0,70,40,10.29,scattered clouds,0.0,0.0
543,Thunder Bay,CA,2020-01-05 20:53:22,48.41,-89.26,30.99,92,90,3.36,light snow,0.0,0.0
544,Makanya,TZ,2020-01-05 20:53:22,-4.36,37.82,71.29,80,83,5.37,light rain,0.31,0.0
545,Santa Cruz,BR,2020-01-05 20:53:23,-6.22,-36.02,80.19,66,98,9.89,overcast clouds,0.0,0.0
546,Le Vauclin,MQ,2020-01-05 20:53:23,14.55,-60.84,80.6,88,100,10.29,light rain,0.0,0.0
547,Porto Novo,BR,2020-01-05 20:54:59,-23.68,-45.44,71.6,83,75,6.93,broken clouds,0.0,0.0
548,Khilok,RU,2020-01-05 20:53:23,51.36,110.46,-1.68,99,3,2.26,clear sky,0.0,0.0
549,Requena,ES,2020-01-05 20:51:01,39.49,-1.1,50.0,87,0,3.36,clear sky,0.0,0.0
550,Anaconda,US,2020-01-05 20:53:23,46.13,-112.94,28.99,50,1,6.93,clear sky,0.0,0.0
551,Igdir,IR,2020-01-05 20:53:23,37.52,45.24,21.2,100,20,4.7,mist,0.0,0.0
552,Dajal,PK,2020-01-05 20:53:23,29.56,70.38,51.51,87,100,18.01,light rain,0.94,0.0
553,Abai,KZ,2020-01-05 20:53:23,41.35,68.95,37.4,86,100,4.7,mist,0.0,0.0
554,Baykit,RU,2020-01-05 20:54:59,61.68,96.39,9.34,96,100,4.05,overcast clouds,0.0,0.0
555,Kapuskasing,CA,2020-01-05 20:53:24,49.42,-82.43,6.8,92,90,9.17,light snow,0.0,0.0
